[
  {
    "name": "Channings Dareton",
    "return_point_name": "channings-dareton",
    "address": "1845 Silver City Highway",
    "city": "Dareton",
    "state": "NSW",
    "postcode": "2717",
    "lat": "-34.0920134",
    "long": "142.0320909",
    "collection_point_type": "Over The Counter"
  },
  {
    "name": "Peak Hill Caravan Park ",
    "return_point_name": "peak-hill-caravan-park",
    "address": "2 Ween Street",
    "city": "Peak Hill",
    "state": "NSW",
    "postcode": "2869",
    "lat": "-32.7211829",
    "long": "148.190703",
    "collection_point_type": "Over The Counter"
  },
  {
    "name": "Warrumbungle Waste",
    "return_point_name": "warrumbungle-waste",
    "address": "4202 Baradine Road",
    "city": "Coonabarabran",
    "state": "NSW",
    "postcode": "2357",
    "lat": "-31.2534244",
    "long": "149.254788",
    "collection_point_type": "Over The Counter"
  },
  {
    "name": "Warrumbungle Shire Council - Dunedoo",
    "return_point_name": "warrumbungle-shire-council-dunedoo",
    "address": "128 Avonside Road",
    "city": "Dunedoo",
    "state": "NSW",
    "postcode": "2844",
    "lat": "-32.033905",
    "long": "149.3736488",
    "collection_point_type": "Over The Counter"
  },
  {
    "name": "Rylstone Foodworks",
    "return_point_name": "rylstone-foodworks",
    "address": "23 Louee Street",
    "city": "Rylstone",
    "state": "NSW",
    "postcode": "2849",
    "lat": "-32.7951927",
    "long": "149.9712379",
    "collection_point_type": "Over The Counter"
  },
  {
    "name": "Foodworks Condobolin",
    "return_point_name": "foodworks-condobolin",
    "address": "22\\/24 Denison Street",
    "city": "Condobolin",
    "state": "NSW",
    "postcode": "2877",
    "lat": "-33.0866474",
    "long": "147.1522422",
    "collection_point_type": "Over The Counter"
  },
  {
    "name": "Sargents Rural Supplies",
    "return_point_name": "sargents-rural-supplies",
    "address": "183 Oberon Street",
    "city": "Oberon",
    "state": "NSW",
    "postcode": "2787",
    "lat": "-33.7034515",
    "long": "149.8549184",
    "collection_point_type": "Over The Counter"
  },
  {
    "name": "Australian Hotel Nyngan ",
    "return_point_name": "australian-hotel-1",
    "address": "42\\/44 Nymagee Street",
    "city": "Nyngan",
    "state": "NSW",
    "postcode": "2825",
    "lat": "-31.5601454",
    "long": "147.1944984",
    "collection_point_type": "Over The Counter"
  },
  {
    "name": "Ivanhoe LPO",
    "return_point_name": "ivanhoe-lpo",
    "address": "LOT 2 Balranald Road",
    "city": "Ivanhoe",
    "state": "NSW",
    "postcode": "2828",
    "lat": "-32.8995788",
    "long": "144.2998798",
    "collection_point_type": "Over The Counter"
  },
  {
    "name": "JC's Cotton Cafe and Takeaway",
    "return_point_name": "jcs-cotton-cafe-and-takeaway",
    "address": "179 Dubbo Street",
    "city": "Warren",
    "state": "NSW",
    "postcode": "2824",
    "lat": "-31.7035265",
    "long": "147.8394354",
    "collection_point_type": "Over The Counter"
  },
  {
    "name": "Bingara IGA and Hardware",
    "return_point_name": "bingara-iga-and-hardware",
    "address": "41-45 Maitland Street",
    "city": "Bingara",
    "state": "NSW",
    "postcode": "2404",
    "lat": "-29.8691939",
    "long": "150.5723023",
    "collection_point_type": "Over The Counter"
  },
  {
    "name": "Transwest Fuels",
    "return_point_name": "transwest-fuels",
    "address": "286 Manilla Street",
    "city": "Manilla",
    "state": "NSW",
    "postcode": "2346",
    "lat": "-30.7396441",
    "long": "150.7164362",
    "collection_point_type": "Over The Counter"
  },
  {
    "name": "Apsley Motors",
    "return_point_name": "apsley-motors",
    "address": "50 Fitzroy Street",
    "city": "Walcha",
    "state": "NSW",
    "postcode": "2354",
    "lat": "-30.9859253",
    "long": "151.5958779",
    "collection_point_type": "Over The Counter"
  },
  {
    "name": "Transwest Fuels Kootingal",
    "return_point_name": "transwest-fuels-kootingal",
    "address": "2 Chelmsford Street",
    "city": "Kootingal",
    "state": "NSW",
    "postcode": "2352",
    "lat": "-31.0560489",
    "long": "151.0475884",
    "collection_point_type": "Over The Counter"
  },
  {
    "name": "The Commercial Hotel",
    "return_point_name": "the-commercial-hotel",
    "address": "136 Queen Street",
    "city": "Barraba",
    "state": "NSW",
    "postcode": "2347",
    "lat": "-30.3775353",
    "long": "150.6112282",
    "collection_point_type": "Over The Counter"
  },
  {
    "name": "Dales Supermarket ",
    "return_point_name": "dales-supermarket",
    "address": "9 Sladen Street",
    "city": "Henty",
    "state": "NSW",
    "postcode": "2658",
    "lat": "-35.5173821",
    "long": "147.0340943",
    "collection_point_type": "Over The Counter"
  },
  {
    "name": "Valmar Industries Gilmore",
    "return_point_name": "valmar-gilmore",
    "address": "6 Killarney Road",
    "city": "Gilmore",
    "state": "NSW",
    "postcode": "2720",
    "lat": "-35.3255798",
    "long": "148.1826443",
    "collection_point_type": "Automated Depot"
  },
  {
    "name": "Boorowa Recreation Club Co-Op",
    "return_point_name": "boorowa-recreation-club-co-op",
    "address": "36-44 Market Street",
    "city": "Boorowa",
    "state": "NSW",
    "postcode": "2586",
    "lat": "-34.44778",
    "long": "148.7167568",
    "collection_point_type": "Over The Counter"
  },
  {
    "name": "IGA Finley",
    "return_point_name": "iga-finley",
    "address": "189 Murray Street",
    "city": "Finley",
    "state": "NSW",
    "postcode": "2713",
    "lat": "-35.6427621",
    "long": "145.5766349",
    "collection_point_type": "Over The Counter"
  },
  {
    "name": "IGA Hillston",
    "return_point_name": "iga-hillston",
    "address": "152 High Street",
    "city": "Hillston",
    "state": "NSW",
    "postcode": "2675",
    "lat": "-33.4844517",
    "long": "145.5338663",
    "collection_point_type": "Over The Counter"
  },
  {
    "name": "V&L Machinery",
    "return_point_name": "vl-machinery",
    "address": "Railway Road",
    "city": "West Wyalong",
    "state": "NSW",
    "postcode": "2671",
    "lat": "-33.9337615",
    "long": "147.2153422",
    "collection_point_type": "Over The Counter"
  },
  {
    "name": "Balranald Takeaway",
    "return_point_name": "balranald-takeaway",
    "address": "115 Market Street",
    "city": "Balranald",
    "state": "NSW",
    "postcode": "2715",
    "lat": "-34.6385294",
    "long": "143.5621898",
    "collection_point_type": "Over The Counter"
  },
  {
    "name": "A1 Car Wash Bass Hill",
    "return_point_name": "a1-car-wash-bass-hill",
    "address": "786 Hume Highway",
    "city": "Bass Hill",
    "state": "NSW",
    "postcode": "2197",
    "lat": "-33.904287",
    "long": "151.0060555",
    "collection_point_type": "Over The Counter"
  },
  {
    "name": "Anna's French Hot Bread",
    "return_point_name": "annas-french-hot-bread",
    "address": "132 Queen Street",
    "city": "St Marys",
    "state": "NSW",
    "postcode": "2760",
    "lat": "-33.7664215",
    "long": "150.7742209",
    "collection_point_type": "Over The Counter"
  },
  {
    "name": "Coronation St Newsagency",
    "return_point_name": "coronation-st-newsagency",
    "address": "16 Coronation Street",
    "city": "Hornsby",
    "state": "NSW",
    "postcode": "2077",
    "lat": "-33.7023417",
    "long": "151.0975872",
    "collection_point_type": "Over The Counter"
  },
  {
    "name": "Charcoal Chicken Doonside",
    "return_point_name": "charcoal-chicken-doonside",
    "address": "10 Hill End Road",
    "city": "Doonside",
    "state": "NSW",
    "postcode": "2767",
    "lat": "-33.762876",
    "long": "150.8691482",
    "collection_point_type": "Over The Counter"
  },
  {
    "name": "Fairlight Newsagency",
    "return_point_name": "press-ink-pty-ltd",
    "address": "145 Sydney Road",
    "city": "Fairlight",
    "state": "NSW",
    "postcode": "2094",
    "lat": "-33.796232",
    "long": "151.2770792",
    "collection_point_type": "Over The Counter"
  },
  {
    "name": "Glow Car Wash Cafe",
    "return_point_name": "glow-car-wash-cafe-cabramatta",
    "address": "208 Cabramatta Road",
    "city": "Cabramatta",
    "state": "NSW",
    "postcode": "2166",
    "lat": "-33.8960938",
    "long": "150.9366108",
    "collection_point_type": "Over The Counter"
  },
  {
    "name": "Gold Car Wash Cafe",
    "return_point_name": "gold-car-wash-cafe",
    "address": "44 O'Riordan Street",
    "city": "Alexandria",
    "state": "NSW",
    "postcode": "2015",
    "lat": "-33.9118136",
    "long": "151.1975847",
    "collection_point_type": "Over The Counter"
  },
  {
    "name": "MFC Food Stores Northmead",
    "return_point_name": "mfc-food-stores-northmead",
    "address": "28 Kleins Road",
    "city": "Northmead",
    "state": "NSW",
    "postcode": "2152",
    "lat": "-33.7936889",
    "long": "150.9942895",
    "collection_point_type": "Over The Counter"
  },
  {
    "name": "Patrick Hot Bread",
    "return_point_name": "patrick-hot-bread-guildford-west",
    "address": "122 Military Road",
    "city": "Guildford West",
    "state": "NSW",
    "postcode": "2161",
    "lat": "-33.8539354",
    "long": "150.9841147",
    "collection_point_type": "Over The Counter"
  },
  {
    "name": "Payless Fuel Sydenham",
    "return_point_name": "payless-fuel-sydenham",
    "address": "31 Unwins Bridge Road",
    "city": "Sydenham",
    "state": "NSW",
    "postcode": "2044",
    "lat": "-33.9147179",
    "long": "151.1684514",
    "collection_point_type": "Over The Counter"
  },
  {
    "name": "Queen Carwash and Cafe",
    "return_point_name": "queen-carwash-and-cafe",
    "address": "17-21 Woodville Road",
    "city": "Granville",
    "state": "NSW",
    "postcode": "2142",
    "lat": "-33.8304763",
    "long": "151.0042249",
    "collection_point_type": "Over The Counter"
  },
  {
    "name": "Waters Supermarket",
    "return_point_name": "waters-supermarket",
    "address": "6\\/12 Murrumbidgee Avenue",
    "city": "Sylvania Waters",
    "state": "NSW",
    "postcode": "2224",
    "lat": "-34.0190272",
    "long": "151.1160878",
    "collection_point_type": "Over The Counter"
  },
  {
    "name": "Windsor Metal Recycling Pty Ltd",
    "return_point_name": "windsor-metal-recycling-pty-ltd",
    "address": "22\\/124 Ham Street",
    "city": "South Windsor",
    "state": "NSW",
    "postcode": "2756",
    "lat": "-33.6260168",
    "long": "150.8133769",
    "collection_point_type": "Over The Counter"
  },
  {
    "name": "Windsor Newsagency",
    "return_point_name": "windsor-newsagency",
    "address": "166 George Street",
    "city": "Windsor",
    "state": "NSW",
    "postcode": "2756",
    "lat": "-33.60679",
    "long": "150.821045",
    "collection_point_type": "Over The Counter"
  },
  {
    "name": "Yagoona Lebanese Bakery",
    "return_point_name": "yagoona-lebanese-bakery",
    "address": "124 Highland Avenue",
    "city": "Yagoona",
    "state": "NSW",
    "postcode": "2199",
    "lat": "-33.9077237",
    "long": "151.0237399",
    "collection_point_type": "Over The Counter"
  },
  {
    "name": "Dazzlers Carwash",
    "return_point_name": "dazzlers-carwash",
    "address": "102 Campbelltown Road",
    "city": "Minto",
    "state": "NSW",
    "postcode": "2566",
    "lat": "-34.0234172",
    "long": "150.8354078",
    "collection_point_type": "Over The Counter"
  },
  {
    "name": "Friendly Grocer and Liquor Wilmot",
    "return_point_name": "friendly-grocer-and-liquor-wilmot",
    "address": "4\\/53 Discovery Avenue",
    "city": "Wilmot",
    "state": "NSW",
    "postcode": "2770",
    "lat": "-33.7254966",
    "long": "150.7926438",
    "collection_point_type": "Over The Counter"
  },
  {
    "name": "Friendly Grocer and Liquor Shalvey",
    "return_point_name": "friendly-grocer-and-liquor-shalvey",
    "address": "6\\/483 Luxford Road",
    "city": "Shalvey ",
    "state": "NSW ",
    "postcode": "2077",
    "lat": "-33.7294352",
    "long": "150.8058228",
    "collection_point_type": "Over The Counter"
  },
  {
    "name": "Golden Crown Carwash",
    "return_point_name": "golden-crown-carwash",
    "address": "74 Railway Parade",
    "city": "Canley Vale",
    "state": "NSW",
    "postcode": "2166",
    "lat": "-33.882866",
    "long": "150.946925",
    "collection_point_type": "Over The Counter"
  },
  {
    "name": "Huntlee Academy",
    "return_point_name": "huntlee-academy",
    "address": "1705 Wine Country Drive ",
    "city": "North Rothbury",
    "state": "NSW",
    "postcode": "2335",
    "lat": "-32.68014",
    "long": "151.34445",
    "collection_point_type": "Over The Counter"
  },
  {
    "name": "Peter Francis Scrap Metal",
    "return_point_name": "peter-francis-scrap-metal",
    "address": "5A\\/4 Homepride Avenue",
    "city": "Warwick Farm",
    "state": "NSW",
    "postcode": "2170",
    "lat": "-33.912609",
    "long": "150.9230679",
    "collection_point_type": "Over The Counter"
  },
  {
    "name": "Yumm Gourmet Pizza",
    "return_point_name": "yumm-gourmet-pizza",
    "address": "21 Lavin Crescent",
    "city": "Werrington County",
    "state": "NSW",
    "postcode": "2747",
    "lat": "-33.7464389",
    "long": "150.7398536",
    "collection_point_type": "Over The Counter"
  },
  {
    "name": "Belvoir Convenience Store",
    "return_point_name": "belvoir-convenience-store",
    "address": "1\\/40 Belvoir Street",
    "city": "Surry Hills ",
    "state": "NSW",
    "postcode": "2100",
    "lat": "-33.8888633",
    "long": "151.2103602",
    "collection_point_type": "Over The Counter"
  },
  {
    "name": "Omart (ezyMart) Convenience Store",
    "return_point_name": "omart-ezymart-convenience-store",
    "address": "1\\/250 Pacific Highway",
    "city": "Crows Nest",
    "state": "NSW",
    "postcode": "2065",
    "lat": "-33.8290296",
    "long": "151.2013286",
    "collection_point_type": "Over The Counter"
  },
  {
    "name": "Asylum Hostels",
    "return_point_name": "asylum-hostels-woolloomooloo",
    "address": "201-203 Brougham Street",
    "city": "Woolloomooloo",
    "state": "NSW",
    "postcode": "2011",
    "lat": "-33.8746289",
    "long": "151.2212875",
    "collection_point_type": "Over The Counter"
  },
  {
    "name": "Hope Shop Port Macquarie",
    "return_point_name": "hope-shop-port-macquarie",
    "address": "3 Milton Circuit",
    "city": "Port Macquarie",
    "state": "NSW",
    "postcode": "2444",
    "lat": "-31.4473418",
    "long": "152.8925295",
    "collection_point_type": "Over The Counter"
  },
  {
    "name": "Angkor Return and Earn",
    "return_point_name": "angkor-return-and-earn",
    "address": "1\\/43 Chadderton Street",
    "city": "Cabramatta",
    "state": "NSW",
    "postcode": "2166",
    "lat": "-33.89393",
    "long": "150.9556",
    "collection_point_type": "Over The Counter"
  },
  {
    "name": "Local Cleaning and Mix Business",
    "return_point_name": "local-cleaning-and-mix-business-guildford",
    "address": "158 Fairfield Street ",
    "city": "Old Guildford",
    "state": "NSW",
    "postcode": "2161",
    "lat": "-33.868646",
    "long": "150.96974",
    "collection_point_type": "Over The Counter"
  },
  {
    "name": "Mosman Friendly Grocer ",
    "return_point_name": "mosman-friendly-grocer",
    "address": "60 Avenue Road",
    "city": "Mosman",
    "state": "NSW",
    "postcode": "2088",
    "lat": "-33.8317008",
    "long": "151.2384925",
    "collection_point_type": "Over The Counter"
  },
  {
    "name": "Aussie & Asian Grocery",
    "return_point_name": "aussie-asian-grocery",
    "address": "484 Liverpool Road",
    "city": "Strathfield South",
    "state": "NSW",
    "postcode": "2136",
    "lat": "-33.892002",
    "long": "151.0829706",
    "collection_point_type": "Over The Counter"
  },
  {
    "name": "Ashfield North Newsagency",
    "return_point_name": "ashfield-north-newsagency",
    "address": "18 Charlotte Street",
    "city": "Ashfield",
    "state": "NSW",
    "postcode": "2131",
    "lat": "-33.8867529",
    "long": "151.1254832",
    "collection_point_type": "Over The Counter"
  },
  {
    "name": "Wilberforce Newsagency",
    "return_point_name": "wilberforce-newsagency",
    "address": "Shop 5\\/ King Road",
    "city": "Wilberforce",
    "state": "NSW",
    "postcode": "2756",
    "lat": "-33.5606858",
    "long": "150.8392388",
    "collection_point_type": "Over The Counter"
  },
  {
    "name": "Rush Hour Convenience Store",
    "return_point_name": "rush-hour-convenience-store",
    "address": "140 Queen victoria Street",
    "city": "Bexley",
    "state": "NSW",
    "postcode": "2207",
    "lat": "-33.955727",
    "long": "151.1258583",
    "collection_point_type": "Over The Counter"
  },
  {
    "name": "Hawthorne Newsagency",
    "return_point_name": "hawthorne-newsagency-willoughby",
    "address": "81 Penshurst Street",
    "city": "Willoughby",
    "state": "NSW",
    "postcode": "2068",
    "lat": "-33.8009101",
    "long": "151.1990583",
    "collection_point_type": "Over The Counter"
  },
  {
    "name": "At Your Convenience",
    "return_point_name": "at-your-convenience-north-sydney",
    "address": "4\\/333 Pacific Highway",
    "city": "North Sydney",
    "state": "NSW",
    "postcode": "2060",
    "lat": "-33.8315714",
    "long": "151.2039806",
    "collection_point_type": "Over The Counter"
  },
  {
    "name": "Tong Da Convenience Store ",
    "return_point_name": "tong-da-convenience-store-waitara",
    "address": "12 Waitara Avenue",
    "city": "Waitara",
    "state": "NSW",
    "postcode": "2077",
    "lat": "-33.7108388",
    "long": "151.1051415",
    "collection_point_type": "Over The Counter"
  },
  {
    "name": "Daily Shopping Lakemba",
    "return_point_name": "daily-shopping-lakemba",
    "address": "47 Railway Road",
    "city": "Lakemba",
    "state": "NSW",
    "postcode": "2795",
    "lat": "-33.919518",
    "long": "151.0758403",
    "collection_point_type": "Over The Counter"
  },
  {
    "name": "Wakeley Newsagency",
    "return_point_name": "wakeley-newsagency",
    "address": "4\\/30 Bulls Road ",
    "city": "Wakeley ",
    "state": "NSW",
    "postcode": "2176",
    "lat": "-33.8702",
    "long": "150.91169",
    "collection_point_type": "Over The Counter"
  },
  {
    "name": "Winmalee Neighbourhood Centre",
    "return_point_name": "winmalee-neighbourhood-centre",
    "address": "62 Whitecross Road",
    "city": "Winmalee",
    "state": "NSW",
    "postcode": "2777",
    "lat": "-33.6691906",
    "long": "150.6085974",
    "collection_point_type": "Over The Counter"
  },
  {
    "name": "Minchinbury Newsagency",
    "return_point_name": "minchinbury-newsagency",
    "address": "1\\/38 Minchin Drive",
    "city": "Minchinbury",
    "state": "NSW",
    "postcode": "2770",
    "lat": "-33.7875366",
    "long": "150.8324986",
    "collection_point_type": "Over The Counter"
  },
  {
    "name": "R & M Mini Market",
    "return_point_name": "r-m-mini-market-lidcombe",
    "address": "32 Kerrs Road ",
    "city": "Lidcombe",
    "state": "NSW",
    "postcode": "2141",
    "lat": "-33.8675228",
    "long": "151.0391073",
    "collection_point_type": "Over The Counter"
  },
  {
    "name": "Sunshine Asian Supermarket",
    "return_point_name": "sunshine-asian-supermarket-riverwood",
    "address": "54 Thurlow Street ",
    "city": "Riverwood",
    "state": "NSW",
    "postcode": "2210",
    "lat": "-33.9518186",
    "long": "151.0530005",
    "collection_point_type": "Over The Counter"
  },
  {
    "name": "Stroud Rural",
    "return_point_name": "stroud-rural",
    "address": "71 Cowper Street",
    "city": "Stroud",
    "state": "NSW",
    "postcode": "2425",
    "lat": "-32.4035849",
    "long": "151.9672281",
    "collection_point_type": "Over The Counter"
  },
  {
    "name": "Booral Produce",
    "return_point_name": "booral-produce",
    "address": "2340 The Bucketts Way",
    "city": "Booral ",
    "state": "NSW",
    "postcode": "2425",
    "lat": "-32.4684978",
    "long": "151.9598813",
    "collection_point_type": "Over The Counter"
  },
  {
    "name": "Concord West Supermarket ",
    "return_point_name": "concord-west-supermarket",
    "address": "33 Victoria Avenue",
    "city": "Concord West ",
    "state": "NSW",
    "postcode": "2138",
    "lat": "-33.847540",
    "long": "151.08644",
    "collection_point_type": "Over The Counter"
  },
  {
    "name": "South Coogee Newsagency",
    "return_point_name": "south-coogee-newsagency",
    "address": "6 Malabar Road",
    "city": "South Coogee",
    "state": "NSW",
    "postcode": "2034",
    "lat": "-33.9272859",
    "long": "151.2503873",
    "collection_point_type": "Over The Counter"
  },
  {
    "name": "Sefton Convenience Store",
    "return_point_name": "sefton-convenience-store",
    "address": "47 Helen Street",
    "city": "Sefton",
    "state": "NSW",
    "postcode": "2162",
    "lat": "-33.8847922",
    "long": "151.011319",
    "collection_point_type": "Over The Counter"
  },
  {
    "name": "Plus Milk Bar Sutherland",
    "return_point_name": "plus-milk-bar-sutherland",
    "address": "24 East Parade",
    "city": "Sutherland",
    "state": "NSW",
    "postcode": "2232",
    "lat": "-34.03109",
    "long": "151.056822",
    "collection_point_type": "Over The Counter"
  },
  {
    "name": "Buladelah Bowling Club",
    "return_point_name": "bulahdelah-bowling-club",
    "address": "50 Jackson Street",
    "city": "Bulahdelah",
    "state": "NSW",
    "postcode": "2423",
    "lat": "-32.4071468",
    "long": "152.2047723",
    "collection_point_type": "Over The Counter"
  },
  {
    "name": "Gerringong Surf Life Saving Club",
    "return_point_name": "gerringong-surf-club",
    "address": "71 Pacific Ave",
    "city": "Werri Beach ",
    "state": "NSW",
    "postcode": "2534",
    "lat": "-34.7300149",
    "long": "150.8359735",
    "collection_point_type": "Over The Counter"
  },
  {
    "name": "Bulli Surf Lifesaving Club",
    "return_point_name": "bulli-surf-lifesaving-club",
    "address": "Trinity Row",
    "city": "Bulli",
    "state": "NSW",
    "postcode": "2516",
    "lat": "-34.3395795",
    "long": "150.9252311",
    "collection_point_type": "Over The Counter"
  },
  {
    "name": "The Lakes Surf Life Saving Club",
    "return_point_name": "the-lakes-surf-life-saving-club",
    "address": "Budgewoi Rosd",
    "city": "Budgewoi",
    "state": "NSW",
    "postcode": "2262",
    "lat": "-33.254353",
    "long": "151.562323",
    "collection_point_type": "Over The Counter"
  },
  {
    "name": "Wamberal Surf Life Saving Club",
    "return_point_name": "wamberal-surf-life-saving-club",
    "address": "1 Dover Rd",
    "city": "Wamberal",
    "state": "NSW",
    "postcode": "2260",
    "lat": "-33.4303299",
    "long": "151.4467036",
    "collection_point_type": "Over The Counter"
  },
  {
    "name": "Killcare Surf Life Saving Club",
    "return_point_name": "killcare-surf-life-saving-club",
    "address": "81 Beach Drive",
    "city": "Killcare",
    "state": "NSW",
    "postcode": "2557",
    "lat": "-33.5291451",
    "long": "151.3635829",
    "collection_point_type": "Over The Counter"
  },
  {
    "name": "Helensburgh-Stanwell Park Surf Life Saving Club",
    "return_point_name": "helensburgh-stanwell-park-surf-life-saving-club",
    "address": "1 Beach Road",
    "city": "Stanwell Park",
    "state": "NSW",
    "postcode": "2508",
    "lat": "-34.23075",
    "long": "150.9887489",
    "collection_point_type": "Over The Counter"
  },
  {
    "name": "Shellharbour Surf Life Saving Club",
    "return_point_name": "shellharbour-surf-life-saving-club",
    "address": "115 Junction Road",
    "city": "Shellharbour",
    "state": "NSW",
    "postcode": "2529",
    "lat": "-34.5718058",
    "long": "150.8667981",
    "collection_point_type": "Over The Counter"
  },
  {
    "name": "North Avoca Surf Life Saving Club",
    "return_point_name": "north-avoca-surf-life-saving-club",
    "address": "46-50 North Avoca Parade ",
    "city": "North Avoca",
    "state": "NSW",
    "postcode": "2260",
    "lat": "-33.4577388",
    "long": "151.43951",
    "collection_point_type": "Over The Counter"
  },
  {
    "name": "Ocean Beach Surf Life Saving Club",
    "return_point_name": "ocean-beach-surf-life-saving-club",
    "address": "176 The Esplanade ",
    "city": "Umina Beach",
    "state": "NSW",
    "postcode": "2257",
    "lat": "-33.5243226",
    "long": "151.3210879",
    "collection_point_type": "Over The Counter"
  },
  {
    "name": "Channings Broken Hill",
    "return_point_name": "channings-broken-hill",
    "address": "73 Newton Lane",
    "city": "Broken Hill",
    "state": "NSW",
    "postcode": "2880",
    "lat": "-31.9656864",
    "long": "141.4337549",
    "collection_point_type": "Automated Depot"
  },
  {
    "name": "Lismore City Council",
    "return_point_name": "lismore-council",
    "address": "313 Wyrallah Road",
    "city": "Monaltrie",
    "state": "NSW",
    "postcode": "2480",
    "lat": "-28.8407021",
    "long": "153.2899386",
    "collection_point_type": "Automated Depot"
  },
  {
    "name": "Shoalhaven Return and Earn Depot",
    "return_point_name": "shoalhaven-return-and-earn-depot",
    "address": "11\\/158-160 Princes Highway",
    "city": "South Nowra",
    "state": "NSW",
    "postcode": "2541",
    "lat": "-34.9111863",
    "long": "150.6044825",
    "collection_point_type": "Automated Depot"
  },
  {
    "name": "Blacktown Container Return",
    "return_point_name": "blacktown-container-return",
    "address": "66 Tattersall Road",
    "city": "Kings Park",
    "state": "NSW",
    "postcode": "2148",
    "lat": "-33.748258",
    "long": "150.910057",
    "collection_point_type": "Automated Depot"
  },
  {
    "name": "Coffs Container Return",
    "return_point_name": "coffs-container-return",
    "address": "313-317 Pacific Highway",
    "city": "Coffs Harbour",
    "state": "NSW",
    "postcode": "2450",
    "lat": "-30.3146541",
    "long": "153.0931597",
    "collection_point_type": "Automated Depot"
  },
  {
    "name": "St Vincent De Paul Unanderra Return and Earn Depot",
    "return_point_name": "wollongong-return-and-earn-depot",
    "address": "10-12 Investigator Drive",
    "city": "Unanderra",
    "state": "NSW",
    "postcode": "2526",
    "lat": "-34.458688",
    "long": "150.8456646",
    "collection_point_type": "Automated Depot"
  },
  {
    "name": "Regroup Queanbeyan",
    "return_point_name": "regroup-queanbeyan",
    "address": "21 Shropshire Street",
    "city": "Queanbeyan",
    "state": "NSW",
    "postcode": "2620",
    "lat": "-35.339737",
    "long": "149.239727",
    "collection_point_type": "Automated Depot"
  },
  {
    "name": "Envirobank West Gosford",
    "return_point_name": "envirobank-recycling",
    "address": "311 Mann\\u2019s Road",
    "city": "West Gosford",
    "state": "NSW",
    "postcode": "2250",
    "lat": "-33.415756",
    "long": "151.320052",
    "collection_point_type": "Automated Depot"
  },
  {
    "name": "Taronga Zoo \\u2013 Backyard to Bush",
    "return_point_name": "taronga-zoo-backyard-to-bush",
    "address": "Taronga Zoo Bradleys Head Rd",
    "city": "Mosman",
    "state": "NSW",
    "postcode": "2088",
    "lat": "-33.843511",
    "long": "151.241411",
    "collection_point_type": "Donation Station"
  },
  {
    "name": "Bondi Junction Station 2",
    "return_point_name": "bondi-junction-station-2",
    "address": "Bondi Junction Train Station",
    "city": "Bondi",
    "state": "NSW",
    "postcode": "2022",
    "lat": "-33.891246",
    "long": "151.248641",
    "collection_point_type": "Donation Station"
  },
  {
    "name": "Central Station - Grand Concourse",
    "return_point_name": "central-station-grand-concourse",
    "address": "Central Station - Grand Concourse",
    "city": "Haymarket",
    "state": "NSW",
    "postcode": "2000",
    "lat": "-33.882289",
    "long": "151.206784",
    "collection_point_type": "Donation Station"
  },
  {
    "name": "Central Station - Southern Concourse",
    "return_point_name": "central-station-southern-concourse",
    "address": "Central Station - Southern Concourse",
    "city": "Haymarket",
    "state": "NSW",
    "postcode": "2000",
    "lat": "-33.885324",
    "long": "151.207029",
    "collection_point_type": "Donation Station"
  },
  {
    "name": "Taronga Zoo - Taronga Food Market",
    "return_point_name": "taronga-zoo-food-market-1",
    "address": "Taronga Zoo Bradleys Head Rd",
    "city": "Mosman",
    "state": "NSW",
    "postcode": "2088",
    "lat": "-33.84476",
    "long": "151.243611",
    "collection_point_type": "Donation Station"
  },
  {
    "name": "Taronga Zoo - African Safari",
    "return_point_name": "taronga-zoo",
    "address": "Taronga Zoo Bradleys Head Rd",
    "city": "Mosman",
    "state": "NSW",
    "postcode": "2088",
    "lat": "-33.842431",
    "long": "151.242539",
    "collection_point_type": "Donation Station"
  },
  {
    "name": "Bondi Junction Station 1",
    "return_point_name": "bondi-junction-station-1",
    "address": "Bondi Junction Train Station",
    "city": "Bondi",
    "state": "NSW",
    "postcode": "2022",
    "lat": "-33.891246",
    "long": "151.248641",
    "collection_point_type": "Donation Station"
  },
  {
    "name": "Taronga Zoo - Taronga Food Market 2",
    "return_point_name": "taronga-zoo-food-market",
    "address": "Taronga Zoo Bradleys Head Rd",
    "city": "Mosman",
    "state": "NSW",
    "postcode": "2088",
    "lat": "-33.844058",
    "long": "151.24055",
    "collection_point_type": "Donation Station"
  },
  {
    "name": "Martin Place Station",
    "return_point_name": "martin-place-station",
    "address": "Martin Place Station",
    "city": "Sydney",
    "state": "NSW",
    "postcode": "2000",
    "lat": "-33.86776",
    "long": "151.21044",
    "collection_point_type": "Donation Station"
  },
  {
    "name": "Woolworths Head Office",
    "return_point_name": "woolworths-bella-vista",
    "address": "1 Woolworths Way",
    "city": "Bella Vista",
    "state": "NSW",
    "postcode": "2153",
    "lat": "-33.737114",
    "long": "150.94933",
    "collection_point_type": "Reverse Vending Machine"
  },
  {
    "name": "Woolworths Spring Farm",
    "return_point_name": "spring-farm",
    "address": "254 Richardson Rd",
    "city": "Spring Farm",
    "state": "NSW",
    "postcode": "2570",
    "lat": "-34.06939",
    "long": "150.72894",
    "collection_point_type": "Reverse Vending Machine"
  },
  {
    "name": "Woolworths Lisarow",
    "return_point_name": "woolworths-lisarow",
    "address": "3 Parsons Rd",
    "city": "Lisarow",
    "state": "NSW",
    "postcode": "2250",
    "lat": "-33.3865",
    "long": "151.36653",
    "collection_point_type": "Reverse Vending Machine"
  },
  {
    "name": "Woolworths Prospect",
    "return_point_name": "woolworths-prospect",
    "address": "Flushcombe Road & Myrtle Street",
    "city": "Prospect",
    "state": "NSW",
    "postcode": "2148",
    "lat": "-33.79681",
    "long": "150.90479",
    "collection_point_type": "Reverse Vending Machine"
  },
  {
    "name": "Woolworths Glenorie",
    "return_point_name": "woolworths-glenorie",
    "address": "936-938 Old Northern Road",
    "city": "Glenorie",
    "state": "NSW",
    "postcode": "2157",
    "lat": "-33.601543",
    "long": "151.00737",
    "collection_point_type": "Reverse Vending Machine"
  },
  {
    "name": "Woolworths Camden",
    "return_point_name": "woolworths-camden",
    "address": "35 Oxley St.",
    "city": "Camden",
    "state": "NSW",
    "postcode": "2570",
    "lat": "-34.054707",
    "long": "150.6936",
    "collection_point_type": "Reverse Vending Machine"
  },
  {
    "name": "Woolworths Vincentia",
    "return_point_name": "woolworths-vincentia",
    "address": "Naval College Road",
    "city": "Vincentia",
    "state": "NSW",
    "postcode": "2540",
    "lat": "-35.07601",
    "long": "150.65532",
    "collection_point_type": "Reverse Vending Machine"
  },
  {
    "name": "Woolworths Medowie",
    "return_point_name": "woolworths-medowie",
    "address": "39-47 Ferodale Rd",
    "city": "Medowie",
    "state": "NSW",
    "postcode": "2318",
    "lat": "-32.74063",
    "long": "151.86592",
    "collection_point_type": "Reverse Vending Machine"
  },
  {
    "name": "Woolworths Revesby",
    "return_point_name": "woolworths-revesby",
    "address": "60 Marco Ave",
    "city": "Revesby",
    "state": "NSW",
    "postcode": "2212",
    "lat": "-33.951523",
    "long": "151.01353",
    "collection_point_type": "Reverse Vending Machine"
  },
  {
    "name": "Woolworths Tumut",
    "return_point_name": "woolworths-tumut",
    "address": "Herlihy & Fitzroy Street",
    "city": "Tumut",
    "state": "NSW",
    "postcode": "2720",
    "lat": "-35.300022",
    "long": "148.22353",
    "collection_point_type": "Reverse Vending Machine"
  },
  {
    "name": "Woolworths Yass",
    "return_point_name": "woolworths-yass",
    "address": "Cnr Comur & Polding Street",
    "city": "Yass",
    "state": "NSW",
    "postcode": "2582",
    "lat": "-34.84497",
    "long": "148.91551",
    "collection_point_type": "Reverse Vending Machine"
  },
  {
    "name": "Woolworths Queanbeyan",
    "return_point_name": "woolworths-queanbeyan",
    "address": "Crawford St. & Antill St.",
    "city": "Queanbeyan",
    "state": "NSW",
    "postcode": "2620",
    "lat": "-35.350433",
    "long": "149.23271",
    "collection_point_type": "Reverse Vending Machine"
  },
  {
    "name": "Woolworths Cootamundra",
    "return_point_name": "woolworths-cootamundra",
    "address": "26 Bourke St.",
    "city": "Cootamundra",
    "state": "NSW",
    "postcode": "2590",
    "lat": "-34.63736",
    "long": "148.02412",
    "collection_point_type": "Reverse Vending Machine"
  },
  {
    "name": "Woolworths Leeton",
    "return_point_name": "woolworths-leeton",
    "address": "Wamoon Ave & Palm Ave",
    "city": "Leeton",
    "state": "NSW",
    "postcode": "2705",
    "lat": "-34.55007",
    "long": "146.39929",
    "collection_point_type": "Reverse Vending Machine"
  },
  {
    "name": "Woolworths Cooma",
    "return_point_name": "woolworths-cooma",
    "address": "12\\/20 Vale St.",
    "city": "Cooma",
    "state": "NSW",
    "postcode": "2630",
    "lat": "-36.233147",
    "long": "149.1243",
    "collection_point_type": "Reverse Vending Machine"
  },
  {
    "name": "Woolworths Inverell",
    "return_point_name": "woolworths-inverell",
    "address": "Cnr Vivian & Sweaney Streets",
    "city": "Inverell",
    "state": "NSW",
    "postcode": "2360",
    "lat": "-29.771832",
    "long": "151.11182",
    "collection_point_type": "Reverse Vending Machine"
  },
  {
    "name": "Woolworths Gunnedah",
    "return_point_name": "woolworths-gunnedah",
    "address": "119\\/129 Conadilly St.",
    "city": "Gunnedah",
    "state": "NSW",
    "postcode": "2380",
    "lat": "-30.97662",
    "long": "150.25006",
    "collection_point_type": "Reverse Vending Machine"
  },
  {
    "name": "Woolworths Wellington",
    "return_point_name": "woolworths-wellington",
    "address": "81 Arthur St.",
    "city": "Wellington",
    "state": "NSW",
    "postcode": "2820",
    "lat": "-32.55494",
    "long": "148.94365",
    "collection_point_type": "Reverse Vending Machine"
  },
  {
    "name": "Woolworths Cowra",
    "return_point_name": "woolworths-cowra",
    "address": "3-9 Railway Ln.",
    "city": "Cowra",
    "state": "NSW",
    "postcode": "2794",
    "lat": "-33.83645",
    "long": "148.69238",
    "collection_point_type": "Reverse Vending Machine"
  },
  {
    "name": "Woolworths Woolgoolga",
    "return_point_name": "woolworths-woolgoolga",
    "address": "Pullen St. & Solitary Island Way",
    "city": "Woolgoolga",
    "state": "NSW",
    "postcode": "2456",
    "lat": "-30.11219",
    "long": "153.1898",
    "collection_point_type": "Reverse Vending Machine"
  },
  {
    "name": "Woolworths Mayfield",
    "return_point_name": "woolworths-mayfield",
    "address": "Maitland Rd & Valencia St.",
    "city": "Mayfield",
    "state": "NSW",
    "postcode": "2304",
    "lat": "-32.900066",
    "long": "151.73955",
    "collection_point_type": "Reverse Vending Machine"
  },
  {
    "name": "Woolworths Moruya",
    "return_point_name": "woolworths-moruya",
    "address": "61-63 Queen Street",
    "city": "Moruya",
    "state": "NSW",
    "postcode": "2537",
    "lat": "-35.91054",
    "long": "150.0818",
    "collection_point_type": "Reverse Vending Machine"
  },
  {
    "name": "Woolworths Wagga Wagga North",
    "return_point_name": "woolworths-wagga-wagga-north",
    "address": "30 Gurwood Street",
    "city": "Wagga Wagga",
    "state": "NSW",
    "postcode": "2650",
    "lat": "-35.107117",
    "long": "147.36908",
    "collection_point_type": "Reverse Vending Machine"
  },
  {
    "name": "Woolworths Marsfield",
    "return_point_name": "woolworths-marsfield",
    "address": "Cnr Epping Rd & Balaclava Rd",
    "city": "Marsfield",
    "state": "NSW",
    "postcode": "2122",
    "lat": "-33.778183",
    "long": "151.10802",
    "collection_point_type": "Reverse Vending Machine"
  },
  {
    "name": "Taronga Zoo - Carpark",
    "return_point_name": "taronga-zoo-carpark",
    "address": "Bradleys Head Road",
    "city": "Mosman",
    "state": "NSW",
    "postcode": "2088",
    "lat": "-33.842243",
    "long": "151.24309",
    "collection_point_type": "Reverse Vending Machine"
  },
  {
    "name": "Woolworths Kellyville",
    "return_point_name": "woolworths-kellyville",
    "address": "88 Wrights Road",
    "city": "Kellyville",
    "state": "NSW",
    "postcode": "2155",
    "lat": "-33.71439",
    "long": "150.97122",
    "collection_point_type": "Reverse Vending Machine"
  },
  {
    "name": "Highlands Marketplace Mittagong",
    "return_point_name": "highlands-marketplace",
    "address": "197 Old Hume Highway",
    "city": "Mittagong",
    "state": "NSW",
    "postcode": "2575",
    "lat": "-34.445797",
    "long": "150.4377",
    "collection_point_type": "Reverse Vending Machine"
  },
  {
    "name": "Carnes Hill Marketplace",
    "return_point_name": "carnes-hill",
    "address": "245 Cowpasture Rd",
    "city": "Carnes Hill",
    "state": "NSW",
    "postcode": "2171",
    "lat": "-33.93809",
    "long": "150.84502",
    "collection_point_type": "Reverse Vending Machine"
  },
  {
    "name": "Campbelltown Mall",
    "return_point_name": "campbelltown-mall",
    "address": "271 Queen St",
    "city": "Campbelltown",
    "state": "NSW",
    "postcode": "2560",
    "lat": "-34.067467",
    "long": "150.81099",
    "collection_point_type": "Reverse Vending Machine"
  },
  {
    "name": "Salamander Bay Square",
    "return_point_name": "salamander-bay-square",
    "address": "2 Town Centre Circuit",
    "city": "Salamander Bay",
    "state": "NSW",
    "postcode": "2317",
    "lat": "-32.7353",
    "long": "152.10762",
    "collection_point_type": "Reverse Vending Machine"
  },
  {
    "name": "Lake Macquarie Square",
    "return_point_name": "lake-macquarie-square",
    "address": "46 Wilsons Rd",
    "city": "Mount Hutton",
    "state": "NSW",
    "postcode": "2290",
    "lat": "-32.985626",
    "long": "151.67143",
    "collection_point_type": "Reverse Vending Machine"
  },
  {
    "name": "Woolworths Bateau Bay",
    "return_point_name": "woolworths-bateau-bay",
    "address": "12 Bay Village Rd",
    "city": "Bateau Bay",
    "state": "NSW",
    "postcode": "2261",
    "lat": "-33.37281",
    "long": "151.47379",
    "collection_point_type": "Reverse Vending Machine"
  },
  {
    "name": "Kooringal Mall Wagga Wagga",
    "return_point_name": "kooringal-mall",
    "address": "Shop 41-51 Lake Albert Rd",
    "city": "Wagga Wagga",
    "state": "NSW",
    "postcode": "2650",
    "lat": "-35.14117",
    "long": "147.37643",
    "collection_point_type": "Reverse Vending Machine"
  },
  {
    "name": "Marrickville Addison Rd Community Ctr",
    "return_point_name": "marrickville-addison-rd-community-ctr",
    "address": "142 Addison Rd",
    "city": "Marrickville",
    "state": "NSW",
    "postcode": "2204",
    "lat": "-33.902534",
    "long": "151.16106",
    "collection_point_type": "Reverse Vending Machine"
  },
  {
    "name": "Ingleburn Town Centre",
    "return_point_name": "ingleburn-town-centre",
    "address": "Crn Norfolk and Nardoo St",
    "city": "Ingleburn",
    "state": "NSW",
    "postcode": "2565",
    "lat": "-33.99957",
    "long": "150.86528",
    "collection_point_type": "Reverse Vending Machine"
  },
  {
    "name": "Stockland Shellharbour Shopping Centre",
    "return_point_name": "stockland-shellharbour-shopping-centre",
    "address": "211 Lake Entrance Rd City Centre",
    "city": "Shellharbour",
    "state": "NSW",
    "postcode": "2529",
    "lat": "-34.566254",
    "long": "150.83772",
    "collection_point_type": "Reverse Vending Machine"
  },
  {
    "name": "Woolworths Corrimal",
    "return_point_name": "corrimal",
    "address": "Princes Hwy & Short St",
    "city": "Corrimal",
    "state": "NSW",
    "postcode": "2518",
    "lat": "-34.37523",
    "long": "150.89671",
    "collection_point_type": "Reverse Vending Machine"
  },
  {
    "name": "Jesmond Central",
    "return_point_name": "jesmond",
    "address": "28 Blue Gum Rd",
    "city": "Jesmond",
    "state": "NSW",
    "postcode": "2299",
    "lat": "-32.901436",
    "long": "151.6891",
    "collection_point_type": "Reverse Vending Machine"
  },
  {
    "name": "Big W Cessnock",
    "return_point_name": "cessnock",
    "address": "20 North Ave",
    "city": "Cessnock",
    "state": "NSW",
    "postcode": "2325",
    "lat": "-32.834873",
    "long": "151.35197",
    "collection_point_type": "Reverse Vending Machine"
  },
  {
    "name": "Narooma Plaza",
    "return_point_name": "narooma-plaza",
    "address": "185 Princes Hwy",
    "city": "Narooma",
    "state": "NSW",
    "postcode": "2546",
    "lat": "-36.223385",
    "long": "150.12791",
    "collection_point_type": "Reverse Vending Machine"
  },
  {
    "name": "Kingscliff Shopping Village",
    "return_point_name": "kingscliff",
    "address": "22-26 Pearl St",
    "city": "Kingscliff",
    "state": "NSW",
    "postcode": "2487",
    "lat": "-28.256968",
    "long": "153.57526",
    "collection_point_type": "Reverse Vending Machine"
  },
  {
    "name": "Woolworths Bass Hill",
    "return_point_name": "woolworths-bass-hill",
    "address": "753 Hume Highway",
    "city": "Bass Hill",
    "state": "NSW",
    "postcode": "2197",
    "lat": "-33.898575",
    "long": "150.99408",
    "collection_point_type": "Reverse Vending Machine"
  },
  {
    "name": "Erina Fair",
    "return_point_name": "erina-fair",
    "address": "620-658 Terrigal Drive",
    "city": "Erina",
    "state": "NSW",
    "postcode": "2250",
    "lat": "-33.436474",
    "long": "151.39067",
    "collection_point_type": "Reverse Vending Machine"
  },
  {
    "name": "Woolworths Forster",
    "return_point_name": "woolworths-forster",
    "address": "17 Breese Parade",
    "city": "Forster",
    "state": "NSW",
    "postcode": "2428",
    "lat": "-32.19882",
    "long": "152.52107",
    "collection_point_type": "Reverse Vending Machine"
  },
  {
    "name": "Foodworks Griffith",
    "return_point_name": "griffith-foodworks",
    "address": "493 Banna Avenue",
    "city": "Griffith",
    "state": "NSW",
    "postcode": "2680",
    "lat": "-34.285862",
    "long": "146.03745",
    "collection_point_type": "Reverse Vending Machine"
  },
  {
    "name": "Armidale Resource Recovery Park",
    "return_point_name": "armidale-resource-recovery-park",
    "address": "Corner of Long Swamp Rd and Depot R",
    "city": "Armidale",
    "state": "NSW",
    "postcode": "2350",
    "lat": "-30.54003",
    "long": "151.68588",
    "collection_point_type": "Reverse Vending Machine"
  },
  {
    "name": "Tamworth Shopping Village",
    "return_point_name": "tamworth-shopping-village",
    "address": "Tamworth Shopping Village",
    "city": "Tamworth",
    "state": "NSW",
    "postcode": "2340",
    "lat": "-31.108501",
    "long": "150.90866",
    "collection_point_type": "Reverse Vending Machine"
  },
  {
    "name": "Convent Street Casino",
    "return_point_name": "casino",
    "address": "60 Convent Parade",
    "city": "Casino",
    "state": "NSW",
    "postcode": "2470",
    "lat": "-28.86188",
    "long": "153.05019",
    "collection_point_type": "Reverse Vending Machine"
  },
  {
    "name": "Delroy Park Shops",
    "return_point_name": "delroy-park-shops",
    "address": "Corner Minore & Baird Drive",
    "city": "West Dubbo",
    "state": "NSW",
    "postcode": "2830",
    "lat": "-32.253822",
    "long": "148.57767",
    "collection_point_type": "Reverse Vending Machine"
  },
  {
    "name": "Woolworths North Orange",
    "return_point_name": "north-orange",
    "address": "9 Telopea Way",
    "city": "North Orange",
    "state": "NSW",
    "postcode": "2800",
    "lat": "-33.254032",
    "long": "149.10127",
    "collection_point_type": "Reverse Vending Machine"
  },
  {
    "name": "Woolworths Griffith North",
    "return_point_name": "griffith-north",
    "address": "Burrell Place",
    "city": "Griffith North",
    "state": "NSW",
    "postcode": "2680",
    "lat": "-34.285736",
    "long": "146.04398",
    "collection_point_type": "Reverse Vending Machine"
  },
  {
    "name": "Woolworths Swansea",
    "return_point_name": "swansea",
    "address": "18 Josephson Street",
    "city": "Swansea",
    "state": "NSW",
    "postcode": "2281",
    "lat": "-33.08684",
    "long": "151.63797",
    "collection_point_type": "Reverse Vending Machine"
  },
  {
    "name": "Swell Storage Carrington",
    "return_point_name": "swell-storage-carrington",
    "address": "4 Gross Street",
    "city": "Carrington",
    "state": "NSW",
    "postcode": "2294",
    "lat": "-32.904655",
    "long": "151.75995",
    "collection_point_type": "Reverse Vending Machine"
  },
  {
    "name": "Coles Wadalba",
    "return_point_name": "coles-wadalba",
    "address": "Figtree Blvd & Orchid Way",
    "city": "Wadalba",
    "state": "NSW",
    "postcode": "2259",
    "lat": "-33.264805",
    "long": "151.46492",
    "collection_point_type": "Reverse Vending Machine"
  },
  {
    "name": "Macarthur Square Campbelltown",
    "return_point_name": "macarthur-square-campbelltown",
    "address": "200 Gilchrist Drive",
    "city": "Campbelltown",
    "state": "NSW",
    "postcode": "2560",
    "lat": "-34.077362",
    "long": "150.79666",
    "collection_point_type": "Reverse Vending Machine"
  },
  {
    "name": "Menai Market Place",
    "return_point_name": "menai-marketing-place",
    "address": "152\\/194 Allison Cres",
    "city": "Menai",
    "state": "NSW",
    "postcode": "2234",
    "lat": "-34.015007",
    "long": "151.01501",
    "collection_point_type": "Reverse Vending Machine"
  },
  {
    "name": "Settlement City Port Macquarie",
    "return_point_name": "settlement-city-port-macquarie",
    "address": "Corner Bay St and Park St",
    "city": "Port Macquarie",
    "state": "NSW",
    "postcode": "2444",
    "lat": "-31.42677",
    "long": "152.89409",
    "collection_point_type": "Reverse Vending Machine"
  },
  {
    "name": "OpShop Kelso",
    "return_point_name": "op-shop-kelso",
    "address": "8 Lions Club Drive",
    "city": "Kelso",
    "state": "NSW",
    "postcode": "2795",
    "lat": "-33.416473",
    "long": "149.59415",
    "collection_point_type": "Reverse Vending Machine"
  },
  {
    "name": "Service NSW Bathurst",
    "return_point_name": "service-nsw-bathurst",
    "address": " 2 Bradwardine Rd",
    "city": "Robin Hill",
    "state": "NSW",
    "postcode": "2795",
    "lat": "-33.41393",
    "long": "149.54546",
    "collection_point_type": "Reverse Vending Machine"
  },
  {
    "name": "Tura Beach Shopping Centre",
    "return_point_name": "tura-beach-shopping-centre",
    "address": "Tura Beach Dr & Saphire Coast Dr",
    "city": "Tura Beach",
    "state": "NSW",
    "postcode": "2548",
    "lat": "-36.863224",
    "long": "149.91345",
    "collection_point_type": "Reverse Vending Machine"
  },
  {
    "name": "Pemulwuy Marketplace",
    "return_point_name": "pemulwuy-marketplace",
    "address": "Greystanes Rd & Butu Wargun Dr",
    "city": "Pemulwuy",
    "state": "NSW",
    "postcode": "2145",
    "lat": "-33.817993",
    "long": "150.93199",
    "collection_point_type": "Reverse Vending Machine"
  },
  {
    "name": "Narellan Town Centre",
    "return_point_name": "narellan-town-centre",
    "address": "326 Camden Valley Way",
    "city": "Narellan",
    "state": "NSW",
    "postcode": "2567",
    "lat": "-34.03918",
    "long": "150.7356",
    "collection_point_type": "Reverse Vending Machine"
  },
  {
    "name": "Woolworths Goonellabah",
    "return_point_name": "woolworths-goonellabah",
    "address": "2 Simeoni Dr",
    "city": "Goonellabah",
    "state": "NSW",
    "postcode": "2480",
    "lat": "-28.823324",
    "long": "153.32788",
    "collection_point_type": "Reverse Vending Machine"
  },
  {
    "name": "Shell Coles Express South Grafton",
    "return_point_name": "shell-coles-express-south-grafton",
    "address": "93 Bent Street",
    "city": "South Grafton",
    "state": "NSW",
    "postcode": "2460",
    "lat": "-29.706299",
    "long": "152.94035",
    "collection_point_type": "Reverse Vending Machine"
  },
  {
    "name": "IGA Deniliquin",
    "return_point_name": "iga-deniliquin",
    "address": "349 George St",
    "city": "Deniliquin",
    "state": "NSW",
    "postcode": "2710",
    "lat": "-35.52736",
    "long": "144.96355",
    "collection_point_type": "Reverse Vending Machine"
  },
  {
    "name": "Lithgow Valley Plaza",
    "return_point_name": "lithgow-valley-plaza",
    "address": "Cnr Lithgow St and Bent St",
    "city": "Lithgow",
    "state": "NSW",
    "postcode": "2790",
    "lat": "-33.487522",
    "long": "150.15239",
    "collection_point_type": "Reverse Vending Machine"
  },
  {
    "name": "Hastings Co-op Wauchope",
    "return_point_name": "hastings-co-op-wauchope",
    "address": "231 Oxley Highway",
    "city": "Wauchope",
    "state": "NSW",
    "postcode": "2446",
    "lat": "-31.468405",
    "long": "152.715",
    "collection_point_type": "Reverse Vending Machine"
  },
  {
    "name": "Stockland Nowra Shopping Centre",
    "return_point_name": "stockland-nowra-fair",
    "address": "32-60 East Street",
    "city": "Nowra",
    "state": "NSW",
    "postcode": "2541",
    "lat": "-34.87493",
    "long": "150.60628",
    "collection_point_type": "Reverse Vending Machine"
  },
  {
    "name": "Coles Bonnells Bay",
    "return_point_name": "coles-bonnells-bay",
    "address": "330 Fishery Point Road",
    "city": "Bonnells Bay",
    "state": "NSW",
    "postcode": "2264",
    "lat": "-33.11117",
    "long": "151.53133",
    "collection_point_type": "Reverse Vending Machine"
  },
  {
    "name": "IGA Temora",
    "return_point_name": "iga-temora",
    "address": "Victoria St & Baker St",
    "city": "Temora",
    "state": "NSW",
    "postcode": "2666",
    "lat": "-34.448624",
    "long": "147.53354",
    "collection_point_type": "Reverse Vending Machine"
  },
  {
    "name": "Yamba Bowling Club",
    "return_point_name": "yamba-bowling-club",
    "address": "44 Wooli Street",
    "city": "Yamba",
    "state": "NSW",
    "postcode": "2464",
    "lat": "-29.43865",
    "long": "153.35738",
    "collection_point_type": "Reverse Vending Machine"
  },
  {
    "name": "Emu Sports Club",
    "return_point_name": "emu-sports-club",
    "address": "1 Leonay Pde",
    "city": "Leonay",
    "state": "NSW",
    "postcode": "2750",
    "lat": "-33.76003",
    "long": "150.6487",
    "collection_point_type": "Reverse Vending Machine"
  },
  {
    "name": "IGA Kingswood Park",
    "return_point_name": "kingswood-park-shopping-centre",
    "address": "7 Caloola Ave",
    "city": "Kingswood",
    "state": "NSW",
    "postcode": "2747",
    "lat": "-33.743233",
    "long": "150.713",
    "collection_point_type": "Reverse Vending Machine"
  },
  {
    "name": "Woolworths Moama",
    "return_point_name": "woolworths-moama",
    "address": "Perricoota Rd",
    "city": "Moama",
    "state": "NSW",
    "postcode": "2731",
    "lat": "-36.107452",
    "long": "144.75023",
    "collection_point_type": "Reverse Vending Machine"
  },
  {
    "name": "Coles Manly Vale",
    "return_point_name": "coles-manly-vale",
    "address": "12\\/14 Koorala St",
    "city": "Manly Vale",
    "state": "NSW",
    "postcode": "2093",
    "lat": "-33.78518",
    "long": "151.26846",
    "collection_point_type": "Reverse Vending Machine"
  },
  {
    "name": "Sydney Markets\\/Paddy Markets Flemington",
    "return_point_name": "sydney-markets-flemington",
    "address": "318 Parramatta Road",
    "city": "Homebush West",
    "state": "NSW",
    "postcode": "2140",
    "lat": "-33.85939",
    "long": "151.0709",
    "collection_point_type": "Reverse Vending Machine"
  },
  {
    "name": "Tenterfield Shire Council Pool",
    "return_point_name": "tenterfield-shire-council-pool",
    "address": "Rouse St & Petrie St",
    "city": "Tenterfield",
    "state": "NSW",
    "postcode": "2372",
    "lat": "-29.047016",
    "long": "152.01971",
    "collection_point_type": "Reverse Vending Machine"
  },
  {
    "name": "Byron Bay Cavanbah Centre",
    "return_point_name": "cavanbah-centre-byron-bay",
    "address": "249 Ewingsdale Road",
    "city": "Byron Bay",
    "state": "NSW",
    "postcode": "2481",
    "lat": "-28.636772",
    "long": "153.57585",
    "collection_point_type": "Reverse Vending Machine"
  },
  {
    "name": "Parkes Metroplaza",
    "return_point_name": "parkes-metroplaza",
    "address": "299 Clarinda Street",
    "city": "Parkes",
    "state": "NSW",
    "postcode": "2870",
    "lat": "-33.134647",
    "long": "148.17523",
    "collection_point_type": "Reverse Vending Machine"
  },
  {
    "name": "Donges SUPA IGA Young",
    "return_point_name": "iga-young",
    "address": "159 Boorowa St",
    "city": "Young",
    "state": "NSW",
    "postcode": "2594",
    "lat": "-34.312386",
    "long": "148.29689",
    "collection_point_type": "Reverse Vending Machine"
  },
  {
    "name": "Cleanaway Eastern Creek",
    "return_point_name": "cleanaway-eastern-creek",
    "address": "1A Raffles Glade",
    "city": "Eastern Creek",
    "state": "NSW",
    "postcode": "2766",
    "lat": "-33.799927",
    "long": "150.83496",
    "collection_point_type": "Reverse Vending Machine"
  },
  {
    "name": "Plumpton Hotel Glendenning",
    "return_point_name": "plumpton-hotel",
    "address": "556 Richmond Rd",
    "city": "Glendenning",
    "state": "NSW",
    "postcode": "2761",
    "lat": "-33.73993",
    "long": "150.86063",
    "collection_point_type": "Reverse Vending Machine"
  },
  {
    "name": "United Kemps Creek",
    "return_point_name": "united-kemps-creek",
    "address": "1465 Elizabeth Drive",
    "city": "Kemps Creek",
    "state": "NSW",
    "postcode": "2178",
    "lat": "-33.879696",
    "long": "150.7883",
    "collection_point_type": "Reverse Vending Machine"
  },
  {
    "name": "Time & Tide Hotel",
    "return_point_name": "time-tide-hotel",
    "address": "30 Campbell Avenue",
    "city": "Dee Why",
    "state": "NSW",
    "postcode": "2099",
    "lat": "-33.741577",
    "long": "151.2875",
    "collection_point_type": "Reverse Vending Machine"
  },
  {
    "name": "Club Grandviews Peakhurst",
    "return_point_name": "club-grandviews",
    "address": "821 Forest Rd",
    "city": "Peakhurst",
    "state": "NSW",
    "postcode": "2210",
    "lat": "-33.968475",
    "long": "151.0518",
    "collection_point_type": "Reverse Vending Machine"
  },
  {
    "name": "Club Paceway Penrith",
    "return_point_name": "club-paceway-penrith",
    "address": "147\\/121 Station St",
    "city": "Penrith",
    "state": "NSW",
    "postcode": "2750",
    "lat": "-33.75613",
    "long": "150.692",
    "collection_point_type": "Reverse Vending Machine"
  },
  {
    "name": "Green Point Village",
    "return_point_name": "green-point-village",
    "address": "Avoca Dr & Sun Valley Rd",
    "city": "Green Point",
    "state": "NSW",
    "postcode": "2251",
    "lat": "-33.446392",
    "long": "151.37367",
    "collection_point_type": "Reverse Vending Machine"
  },
  {
    "name": "Jewellstown Plaza",
    "return_point_name": "jewellstown-plaza",
    "address": "Ntaba Rd",
    "city": "Jewells",
    "state": "NSW",
    "postcode": "2280",
    "lat": "-33.01249",
    "long": "151.68484",
    "collection_point_type": "Reverse Vending Machine"
  },
  {
    "name": "Randwick Golf Club",
    "return_point_name": "randwick-golf-club",
    "address": "Howe St",
    "city": "Malabar",
    "state": "NSW",
    "postcode": "2036",
    "lat": "-33.96845",
    "long": "151.25354",
    "collection_point_type": "Reverse Vending Machine"
  },
  {
    "name": "Strathfield Council Carpark",
    "return_point_name": "strathfield-council-carpark",
    "address": "5 Churchill Avenue",
    "city": "Strathfield",
    "state": "NSW",
    "postcode": "2135",
    "lat": "-33.872223",
    "long": "151.09328",
    "collection_point_type": "Reverse Vending Machine"
  },
  {
    "name": "Rocks Central Shopping Centre South West Rocks",
    "return_point_name": "south-west-rocks",
    "address": "Gregory St & Spencers Creek Rd",
    "city": "South West Rocks",
    "state": "NSW",
    "postcode": "2431",
    "lat": "-30.90722",
    "long": "153.04263",
    "collection_point_type": "Reverse Vending Machine"
  },
  {
    "name": "Old Bar Tavern",
    "return_point_name": "old-bar-tavern",
    "address": "13 Saltwater Road",
    "city": "Old Bar",
    "state": "NSW",
    "postcode": "2430",
    "lat": "-31.966902",
    "long": "152.56583",
    "collection_point_type": "Reverse Vending Machine"
  },
  {
    "name": "Bomaderry Bowling Club",
    "return_point_name": "bomaderry-bowling-club",
    "address": "154 Meroo Rd",
    "city": "Bomaderry",
    "state": "NSW",
    "postcode": "2541",
    "lat": "-34.84852",
    "long": "150.61192",
    "collection_point_type": "Reverse Vending Machine"
  },
  {
    "name": "Nambucca Shire Council Macksville",
    "return_point_name": "nambucca-shire-council-macksville",
    "address": "Walter Munro Pl",
    "city": "Macksville",
    "state": "NSW",
    "postcode": "2447",
    "lat": "-30.709219",
    "long": "152.92154",
    "collection_point_type": "Reverse Vending Machine"
  },
  {
    "name": "Kings Langley Shopping Centre",
    "return_point_name": "kings-langley-shopping-centre",
    "address": "Ravenhill St",
    "city": "Kings Langley",
    "state": "NSW",
    "postcode": "2147",
    "lat": "-33.74376",
    "long": "150.92332",
    "collection_point_type": "Reverse Vending Machine"
  },
  {
    "name": "Wyong Golf Club",
    "return_point_name": "wyong-golf-club",
    "address": "319 Pacific Hwy",
    "city": "Wyong",
    "state": "NSW",
    "postcode": "2259",
    "lat": "-33.26853",
    "long": "151.4335",
    "collection_point_type": "Reverse Vending Machine"
  },
  {
    "name": "Pursehouse Rural Suppliers Muswellbrook",
    "return_point_name": "pursehouse-rural-suppliers",
    "address": "127 Sydney Street",
    "city": "Muswellbrook",
    "state": "NSW",
    "postcode": "2333",
    "lat": "-32.270935",
    "long": "150.88025",
    "collection_point_type": "Reverse Vending Machine"
  },
  {
    "name": "Jerrabomberra Village",
    "return_point_name": "jerrabomberra-village",
    "address": "Limestone Dr",
    "city": "Jerrabomberra",
    "state": "NSW",
    "postcode": "2619",
    "lat": "-35.381287",
    "long": "149.20148",
    "collection_point_type": "Reverse Vending Machine"
  },
  {
    "name": "Coles Berkeley",
    "return_point_name": "coles-berkeley",
    "address": "65 Winnima Way",
    "city": "Berkeley",
    "state": "NSW",
    "postcode": "2506",
    "lat": "-34.48152",
    "long": "150.84605",
    "collection_point_type": "Reverse Vending Machine"
  },
  {
    "name": "Kincumber Village",
    "return_point_name": "kincumber-village",
    "address": "43 Avoca Dr",
    "city": "Kincumber",
    "state": "NSW",
    "postcode": "2251",
    "lat": "-33.46727",
    "long": "151.38336",
    "collection_point_type": "Reverse Vending Machine"
  },
  {
    "name": "Wingham Services Club",
    "return_point_name": "wingham-services-club",
    "address": "28-38 Bent St",
    "city": "Wingham",
    "state": "NSW",
    "postcode": "2429",
    "lat": "-31.869833",
    "long": "152.37337",
    "collection_point_type": "Reverse Vending Machine"
  },
  {
    "name": "Windale Gateshead Bowling Club",
    "return_point_name": "windale-gateshead-bowling-club",
    "address": "2A Lake Street",
    "city": "Windale",
    "state": "NSW",
    "postcode": "2306",
    "lat": "-32.991093",
    "long": "151.68723",
    "collection_point_type": "Reverse Vending Machine"
  },
  {
    "name": "Bennetts Green Shopping Centre",
    "return_point_name": "bennetts-green-shopping-centre",
    "address": "7-15 Groves Rd",
    "city": "Bennetts Green",
    "state": "NSW",
    "postcode": "2290",
    "lat": "-32.99597",
    "long": "151.68938",
    "collection_point_type": "Reverse Vending Machine"
  },
  {
    "name": "Parklea Markets",
    "return_point_name": "parklea-markets",
    "address": "601 Sunnyholt Rd",
    "city": "Parklea",
    "state": "NSW",
    "postcode": "2768",
    "lat": "-33.72418",
    "long": "150.9315",
    "collection_point_type": "Reverse Vending Machine"
  },
  {
    "name": "Coles Fletcher",
    "return_point_name": "coles-fletcher",
    "address": "Cnr Churnwood Dr & Minmi Rd",
    "city": "Fletcher",
    "state": "NSW",
    "postcode": "2287",
    "lat": "-32.877598",
    "long": "151.647",
    "collection_point_type": "Reverse Vending Machine"
  },
  {
    "name": "Coles San Remo",
    "return_point_name": "coles-san-remo",
    "address": "21 Pacific Hwy",
    "city": "San Remo",
    "state": "NSW",
    "postcode": "2262",
    "lat": "-33.215492",
    "long": "151.51143",
    "collection_point_type": "Reverse Vending Machine"
  },
  {
    "name": "Baulkham Hills Sports Club",
    "return_point_name": "baulkham-hills-sports-club",
    "address": "11 Renown Rd",
    "city": "Baulkham Hills",
    "state": "NSW",
    "postcode": "2153",
    "lat": "-33.763485",
    "long": "151.00482",
    "collection_point_type": "Reverse Vending Machine"
  },
  {
    "name": "IGA St Georges Basin",
    "return_point_name": "iga-st-georges-basin",
    "address": "1\\/136 Island Point Rd",
    "city": "St Georges Basin",
    "state": "NSW",
    "postcode": "2540",
    "lat": "-35.090416",
    "long": "150.599",
    "collection_point_type": "Reverse Vending Machine"
  },
  {
    "name": "Challenge Narrabri Recycling",
    "return_point_name": "challenge-narrabri-recycling",
    "address": "112 Arnold St",
    "city": "Narrabri",
    "state": "NSW",
    "postcode": "2390",
    "lat": "-30.335632",
    "long": "149.80246",
    "collection_point_type": "Reverse Vending Machine"
  },
  {
    "name": "United Petroleum Vineyard",
    "return_point_name": "united-petroleum-vineyard",
    "address": "1540 Windsor Rd",
    "city": "Vineyard",
    "state": "NSW",
    "postcode": "2765",
    "lat": "-33.6502",
    "long": "150.86275",
    "collection_point_type": "Reverse Vending Machine"
  },
  {
    "name": "Home Co Rutherford",
    "return_point_name": "home-consortium-rutherford",
    "address": "Cnr Mustang Dr & Anambah Rd",
    "city": "Rutherford",
    "state": "NSW",
    "postcode": "2320",
    "lat": "-32.7065",
    "long": "151.50832",
    "collection_point_type": "Reverse Vending Machine"
  },
  {
    "name": "Mullumbimby Ex Services Bowling Club",
    "return_point_name": "mullumbimby-ex-services-bowling-club",
    "address": "7 Jubilee Ave",
    "city": "Mullumbimby",
    "state": "NSW",
    "postcode": "2482",
    "lat": "-28.557653",
    "long": "153.49635",
    "collection_point_type": "Reverse Vending Machine"
  },
  {
    "name": "Nambucca Heads Sports Recreation Park",
    "return_point_name": "nambucca-heads-sports-recreation-park",
    "address": "Coronation Park 24 Short Street",
    "city": "Nambucca Heads",
    "state": "NSW",
    "postcode": "2448",
    "lat": "-30.639364",
    "long": "153.01122",
    "collection_point_type": "Reverse Vending Machine"
  },
  {
    "name": "Punchbowl Officeworks",
    "return_point_name": "punchbowl-officeworks",
    "address": "1618 Canterbury Rd",
    "city": "Punchbowl",
    "state": "NSW",
    "postcode": "2196",
    "lat": "-33.934208",
    "long": "151.0405",
    "collection_point_type": "Reverse Vending Machine"
  },
  {
    "name": "Terranora Shopping Village",
    "return_point_name": "terranora-shopping-village",
    "address": "14 Henry Lawson Dr",
    "city": "Terranora",
    "state": "NSW",
    "postcode": "2486",
    "lat": "-28.240458",
    "long": "153.50163",
    "collection_point_type": "Reverse Vending Machine"
  },
  {
    "name": "Milton Ulladulla Ex Servos Club",
    "return_point_name": "milton-ulladulla-ex-servos-club",
    "address": "212-222 Princes Hwy",
    "city": "Ulladulla",
    "state": "NSW",
    "postcode": "2539",
    "lat": "-35.36879",
    "long": "150.47179",
    "collection_point_type": "Reverse Vending Machine"
  },
  {
    "name": "The Centre Dural",
    "return_point_name": "the-centre-dural",
    "address": "1 Pelitt Ln",
    "city": "Dural",
    "state": "NSW",
    "postcode": "2158",
    "lat": "-33.689354",
    "long": "151.01587",
    "collection_point_type": "Reverse Vending Machine"
  },
  {
    "name": "Helensburgh Golf Driving Range",
    "return_point_name": "helensburgh-golf-driving-range",
    "address": "2 Lawrence Hargrave Dr",
    "city": "Helensburgh",
    "state": "NSW",
    "postcode": "2508",
    "lat": "-34.20294",
    "long": "150.96841",
    "collection_point_type": "Reverse Vending Machine"
  },
  {
    "name": "Eagle Vale Marketplace",
    "return_point_name": "eagle-vale-marketplace",
    "address": "180 Gould Rd",
    "city": "Eagle Vale",
    "state": "NSW",
    "postcode": "2558",
    "lat": "-34.032204",
    "long": "150.81557",
    "collection_point_type": "Reverse Vending Machine"
  },
  {
    "name": "PCYC Mount Druitt",
    "return_point_name": "pcyc-mount-druitt",
    "address": "453A Luxford Rd",
    "city": "Shalvey",
    "state": "NSW",
    "postcode": "2770",
    "lat": "-33.731888",
    "long": "150.80128",
    "collection_point_type": "Reverse Vending Machine"
  },
  {
    "name": "Woolworths Glenrose",
    "return_point_name": "woolworths-glenrose",
    "address": "56-58 Glen St",
    "city": "Belrose",
    "state": "NSW",
    "postcode": "2085",
    "lat": "-33.739876",
    "long": "151.20935",
    "collection_point_type": "Reverse Vending Machine"
  },
  {
    "name": "Muree Golf Club Raymond Terrace",
    "return_point_name": "muree-golf-club",
    "address": "7 Walker Cres",
    "city": "Raymond Terrace",
    "state": "NSW",
    "postcode": "2324",
    "lat": "-32.763237",
    "long": "151.75493",
    "collection_point_type": "Reverse Vending Machine"
  },
  {
    "name": "The Showgrounds Dapto",
    "return_point_name": "dapto-showground",
    "address": "89 Princes Hwy",
    "city": "Dapto",
    "state": "NSW",
    "postcode": "2530",
    "lat": "-34.497105",
    "long": "150.79729",
    "collection_point_type": "Reverse Vending Machine"
  },
  {
    "name": "Budget Petrol Goulburn",
    "return_point_name": "budget-petrol-goulburn",
    "address": "53 Sydney Rd",
    "city": "Goulburn",
    "state": "NSW",
    "postcode": "2580",
    "lat": "-34.748116",
    "long": "149.7497",
    "collection_point_type": "Reverse Vending Machine"
  },
  {
    "name": "Foodworks Canowindra",
    "return_point_name": "foodworks-canowindra",
    "address": "94 Gaskill Street",
    "city": "Canowindra",
    "state": "NSW",
    "postcode": "2804",
    "lat": "-33.5644753",
    "long": "148.6605145",
    "collection_point_type": "Over The Counter"
  },
  {
    "name": "Triple J's General Store",
    "return_point_name": "triple-js-general-store-denman",
    "address": "29 Ogilvie Street",
    "city": "Denman",
    "state": "NSW",
    "postcode": "2328",
    "lat": "-32.3897532",
    "long": "150.6869216",
    "collection_point_type": "Over The Counter"
  },
  {
    "name": "Ashfield Mini Supermarket",
    "return_point_name": "ashfield-mini-supermarket",
    "address": "92 Charlotte Street",
    "city": "Ashfield",
    "state": "NSW",
    "postcode": "2131",
    "lat": "-33.8818778",
    "long": "151.1261883",
    "collection_point_type": "Over The Counter"
  },
  {
    "name": "Recharging Burger & Coffee",
    "return_point_name": "recharging-burger-coffee",
    "address": "10 Johnston Street",
    "city": "Annandale",
    "state": "NSW",
    "postcode": "2038",
    "lat": "-33.88751",
    "long": "151.1675475",
    "collection_point_type": "Over The Counter"
  },
  {
    "name": "Coles Lavington",
    "return_point_name": "coles-lavington",
    "address": "Griffith Rd & Urana Rd",
    "city": "Lavington",
    "state": "NSW",
    "postcode": "2641",
    "lat": "-36.050358",
    "long": "146.93275",
    "collection_point_type": "Reverse Vending Machine"
  },
  {
    "name": "Corowa RSL Club",
    "return_point_name": "corowa-rsl-club",
    "address": "30 Betterment Pde",
    "city": "Corowa",
    "state": "NSW",
    "postcode": "2646",
    "lat": "-35.995197",
    "long": "146.387",
    "collection_point_type": "Reverse Vending Machine"
  },
  {
    "name": "Coles Tanilba Bay",
    "return_point_name": "coles-tanilba-bay",
    "address": "67 Beatty Blvd",
    "city": "Tanilba Bay",
    "state": "NSW",
    "postcode": "2319",
    "lat": "-32.735943",
    "long": "151.99982",
    "collection_point_type": "Reverse Vending Machine"
  },
  {
    "name": "Home Co Marsden Park",
    "return_point_name": "home-co-marsden-park",
    "address": "17\\/43 Hollinsworth Rd",
    "city": "Marsden Park",
    "state": "NSW",
    "postcode": "2765",
    "lat": "-33.721428",
    "long": "150.84161",
    "collection_point_type": "Reverse Vending Machine"
  },
  {
    "name": "Woolworths Lake Munmorah",
    "return_point_name": "woolworths-lake-munmorah",
    "address": "1 Tall Timbers Rd",
    "city": "Lake Munmorah",
    "state": "NSW",
    "postcode": "2259",
    "lat": "-33.18883",
    "long": "151.55956",
    "collection_point_type": "Reverse Vending Machine"
  },
  {
    "name": "Macarthur Tavern Campbelltown",
    "return_point_name": "the-macarthur-tavern",
    "address": "Cnr Gilchrist Dr & Kellicar Rd",
    "city": "Campbelltown",
    "state": "NSW",
    "postcode": "2560",
    "lat": "-34.07289",
    "long": "150.79903",
    "collection_point_type": "Reverse Vending Machine"
  },
  {
    "name": "Fairfield Forum",
    "return_point_name": "fairfield-forum",
    "address": "8-36 Station St",
    "city": "Fairfield",
    "state": "NSW",
    "postcode": "2165",
    "lat": "-33.86765",
    "long": "150.95157",
    "collection_point_type": "Reverse Vending Machine"
  },
  {
    "name": "Coles Warrawong",
    "return_point_name": "coles-warrawong",
    "address": "Cnr King St & Northcliffe Dr",
    "city": "Warrawong",
    "state": "NSW",
    "postcode": "2502",
    "lat": "-34.487312",
    "long": "150.89017",
    "collection_point_type": "Reverse Vending Machine"
  },
  {
    "name": "Albion Park RSL",
    "return_point_name": "albion-park-rsl",
    "address": "160 Tongarra Rd",
    "city": "Albion Park",
    "state": "NSW",
    "postcode": "2527",
    "lat": "-34.57051",
    "long": "150.77052",
    "collection_point_type": "Reverse Vending Machine"
  },
  {
    "name": "Pittwater RSL Club Mona Vale",
    "return_point_name": "pittwater-rsl-club",
    "address": "82 Mona Vale Rd",
    "city": "Mona Vale",
    "state": "NSW",
    "postcode": "2103",
    "lat": "-33.678104",
    "long": "151.29184",
    "collection_point_type": "Reverse Vending Machine"
  },
  {
    "name": "Taree Leagues Club",
    "return_point_name": "taree-leagues-club",
    "address": "43 Cowper St",
    "city": "Taree",
    "state": "NSW",
    "postcode": "2430",
    "lat": "-31.89834",
    "long": "152.48212",
    "collection_point_type": "Reverse Vending Machine"
  },
  {
    "name": "Kurri Kurri Bowling Club",
    "return_point_name": "kurri-kurri-bowling-club",
    "address": "3 Tarro St",
    "city": "Kurri Kurri",
    "state": "NSW",
    "postcode": "2327",
    "lat": "-32.825283",
    "long": "151.4885",
    "collection_point_type": "Reverse Vending Machine"
  },
  {
    "name": "Aventus Kotara Home",
    "return_point_name": "kotara-home",
    "address": "30 Northcott Dr",
    "city": "Kotara",
    "state": "NSW",
    "postcode": "2289",
    "lat": "-32.940445",
    "long": "151.70709",
    "collection_point_type": "Reverse Vending Machine"
  },
  {
    "name": "Aventus Tuggerah Super Centre",
    "return_point_name": "tuggerah-super-centre",
    "address": "Cnr Wyong Rd & Bryant Dr",
    "city": "Tuggerah",
    "state": "NSW",
    "postcode": "2259",
    "lat": "-33.3095",
    "long": "151.42255",
    "collection_point_type": "Reverse Vending Machine"
  },
  {
    "name": "Aventus Marsden Park Home",
    "return_point_name": "marsden-park-home",
    "address": "9-49 Hollinsworth Rd",
    "city": "Marsden Park",
    "state": "NSW",
    "postcode": "2765",
    "lat": "-33.719975",
    "long": "150.84087",
    "collection_point_type": "Reverse Vending Machine"
  },
  {
    "name": "Winmalee Shopping Centre",
    "return_point_name": "winmalee-shopping-centre",
    "address": "32-44 White Cross Rd",
    "city": "Winmalee",
    "state": "NSW",
    "postcode": "2777",
    "lat": "-33.67173",
    "long": "150.60892",
    "collection_point_type": "Reverse Vending Machine"
  },
  {
    "name": "Home Co Penrith",
    "return_point_name": "home-co-penrith",
    "address": "72\\/82 Mulgoa Rd",
    "city": "Penrith",
    "state": "NSW",
    "postcode": "2750",
    "lat": "-33.765102",
    "long": "150.6824",
    "collection_point_type": "Reverse Vending Machine"
  },
  {
    "name": "Hope Unlimited Church Charmhaven",
    "return_point_name": "hope-unlimited-church",
    "address": "164 Pacific Hwy",
    "city": "Charmhaven",
    "state": "NSW",
    "postcode": "2263",
    "lat": "-33.23054",
    "long": "151.50131",
    "collection_point_type": "Reverse Vending Machine"
  },
  {
    "name": "Lennox Village Emu Plains",
    "return_point_name": "lennox-village",
    "address": "Great Western Hwy & Pyramid St",
    "city": "Emu Plains",
    "state": "NSW",
    "postcode": "2750",
    "lat": "-33.753353",
    "long": "150.65659",
    "collection_point_type": "Reverse Vending Machine"
  },
  {
    "name": "Aventus Bankstown Home",
    "return_point_name": "bankstown-home",
    "address": "9-49 Chapel Rd",
    "city": "Bankstown",
    "state": "NSW",
    "postcode": "2200",
    "lat": "-33.931557",
    "long": "151.03009",
    "collection_point_type": "Reverse Vending Machine"
  },
  {
    "name": "Little Bay Pharmacy",
    "return_point_name": "little-bay-pharmacy",
    "address": "1405 Anzac Parade",
    "city": "Little Bay",
    "state": "NSW",
    "postcode": "2036",
    "lat": "-33.97934",
    "long": "151.24441",
    "collection_point_type": "Over The Counter"
  },
  {
    "name": "Oyster Bay Bakery",
    "return_point_name": "oyster-bay-bakery",
    "address": "123 Como Rd",
    "city": "Oyster Bay",
    "state": "NSW",
    "postcode": "2225",
    "lat": "-34.006424",
    "long": "151.080911",
    "collection_point_type": "Over The Counter"
  },
  {
    "name": "Lake Innes Village Shopping Centre",
    "return_point_name": "lake-innes-village",
    "address": "525 John Oxley Dr",
    "city": "Port Macquarie",
    "state": "NSW",
    "postcode": "2444",
    "lat": "-31.45736",
    "long": "152.87422",
    "collection_point_type": "Reverse Vending Machine"
  },
  {
    "name": "Blackheath Mitre 10",
    "return_point_name": "blackheath-mitre-10",
    "address": "125 Station Street",
    "city": "Blackheath",
    "state": "NSW",
    "postcode": "2785",
    "lat": "-33.634885",
    "long": "150.284055",
    "collection_point_type": "Over The Counter"
  },
  {
    "name": "Tweed City Shopping Centre",
    "return_point_name": "tweed-city-shopping-centre-tweed-heads-south",
    "address": "54 Minjungbal Dr",
    "city": "Tweed Heads South",
    "state": "NSW",
    "postcode": "2486",
    "lat": "-28.203032",
    "long": "153.54544",
    "collection_point_type": "Reverse Vending Machine"
  },
  {
    "name": "Grenfell Furniture",
    "return_point_name": "grenfell-furniture",
    "address": "66 Main St",
    "city": "Grenfell",
    "state": "NSW",
    "postcode": "2810",
    "lat": "-33.89318",
    "long": "148.159471",
    "collection_point_type": "Over The Counter"
  },
  {
    "name": "Woolworths Aberglasslyn",
    "return_point_name": "woolworths-aberglasslyn",
    "address": "McKeachie Dr & Aberglasslyn Rd",
    "city": "Aberglasslyn",
    "state": "NSW",
    "postcode": "2320",
    "lat": "-32.702785",
    "long": "151.53955",
    "collection_point_type": "Reverse Vending Machine"
  },
  {
    "name": "Home Co Coffs Harbour",
    "return_point_name": "home-consortium-coffs-harbour",
    "address": "211 Pacific Hwy",
    "city": "Coffs Harbour",
    "state": "NSW",
    "postcode": "2450",
    "lat": "-30.30905",
    "long": "153.10156",
    "collection_point_type": "Reverse Vending Machine"
  },
  {
    "name": "Car Wash Cafe Club",
    "return_point_name": "car-wash-cafe-club-2",
    "address": "96 Hoxton Park Road",
    "city": "Lurnea",
    "state": "NSW",
    "postcode": "2170",
    "lat": "-33.927387",
    "long": "150.906458",
    "collection_point_type": "Over The Counter"
  },
  {
    "name": "Woolworths Lake Cathie",
    "return_point_name": "woolworths-lake-cathie",
    "address": "2 Ocean Dr",
    "city": "Lake Cathie",
    "state": "NSW",
    "postcode": "2445",
    "lat": "-31.552574",
    "long": "152.85393",
    "collection_point_type": "Reverse Vending Machine"
  },
  {
    "name": "Arena Sports Club Yagoona",
    "return_point_name": "arena-sports-club-yagoona",
    "address": "140 Rookwood Rd",
    "city": "Yagoona",
    "state": "NSW",
    "postcode": "2199",
    "lat": "-33.896214",
    "long": "151.03734",
    "collection_point_type": "Reverse Vending Machine"
  },
  {
    "name": "Woolworths Balgowlah",
    "return_point_name": "woolworths-balgowlah",
    "address": "17\\/31 Roseberry St",
    "city": "Balgowlah",
    "state": "NSW",
    "postcode": "2093",
    "lat": "-33.788166",
    "long": "151.2671",
    "collection_point_type": "Reverse Vending Machine"
  },
  {
    "name": "Market Town Wetherill Park",
    "return_point_name": "market-town-wetherill-park",
    "address": "1024 The Horsley Dr",
    "city": "Wetherill Park",
    "state": "NSW",
    "postcode": "2164",
    "lat": "-33.852036",
    "long": "150.90927",
    "collection_point_type": "Reverse Vending Machine"
  },
  {
    "name": "Muswellbrook Marketplace",
    "return_point_name": "muswellbrook-marketplace",
    "address": "22 Sowerby St",
    "city": "Muswellbrook",
    "state": "NSW",
    "postcode": "2333",
    "lat": "-32.26221",
    "long": "150.88995",
    "collection_point_type": "Reverse Vending Machine"
  },
  {
    "name": "Ginger Indian Restaurant",
    "return_point_name": "ginger-indian-restaurant",
    "address": "94 Wigram Street ",
    "city": "Harris Park",
    "state": "NSW",
    "postcode": "2150",
    "lat": "-33.8208",
    "long": "151.00885",
    "collection_point_type": "Over The Counter"
  },
  {
    "name": "Southgate Shopping Centre Sylvania",
    "return_point_name": "southgate-shopping-centre-sylvania",
    "address": "Princes Hwy & Port Hacking Rd",
    "city": "Sylvania",
    "state": "NSW",
    "postcode": "2224",
    "lat": "-34.008812",
    "long": "151.10529",
    "collection_point_type": "Reverse Vending Machine"
  },
  {
    "name": "Plumpton Marketplace",
    "return_point_name": "plumpton-marketplace",
    "address": "262 Jersey Rd",
    "city": "Plumpton",
    "state": "NSW",
    "postcode": "2761",
    "lat": "-33.74428",
    "long": "150.83508",
    "collection_point_type": "Reverse Vending Machine"
  },
  {
    "name": "Home Co Rouse Hill",
    "return_point_name": "home-co-rouse-hill",
    "address": "4-6 Commercial Rd",
    "city": "Rouse Hill",
    "state": "NSW",
    "postcode": "2155",
    "lat": "-33.686726",
    "long": "150.92216",
    "collection_point_type": "Reverse Vending Machine"
  },
  {
    "name": "Miller Central",
    "return_point_name": "miller-central",
    "address": "90 Cartwright Ave",
    "city": "Miller",
    "state": "NSW",
    "postcode": "2168",
    "lat": "-33.920097",
    "long": "150.88364",
    "collection_point_type": "Reverse Vending Machine"
  },
  {
    "name": "Prestons Container Return",
    "return_point_name": "container-return-prestons",
    "address": "5 Avalli Road",
    "city": "Prestons",
    "state": "NSW",
    "postcode": "2170",
    "lat": "-33.934088",
    "long": "150.877177",
    "collection_point_type": "Automated Depot"
  },
  {
    "name": "Aventus McGraths Hill",
    "return_point_name": "mcgraths-hill",
    "address": "264-272 Windsor Rd",
    "city": "McGraths Hill",
    "state": "NSW",
    "postcode": "2756",
    "lat": "-33.62745",
    "long": "150.83925",
    "collection_point_type": "Reverse Vending Machine"
  },
  {
    "name": "Aventus Castle Hill",
    "return_point_name": "aventus-castle-hill",
    "address": "16-18 Victoria Ave",
    "city": "Castle Hill",
    "state": "NSW",
    "postcode": "2154",
    "lat": "-33.727936",
    "long": "150.97507",
    "collection_point_type": "Reverse Vending Machine"
  },
  {
    "name": "Marketfair Campbelltown",
    "return_point_name": "marketfair-campbelltown",
    "address": "4 Tindall St",
    "city": "Campbelltown",
    "state": "NSW",
    "postcode": "2560",
    "lat": "-34.071003",
    "long": "150.80377",
    "collection_point_type": "Reverse Vending Machine"
  },
  {
    "name": "Raby Tavern",
    "return_point_name": "raby-tavern",
    "address": "39 Spitfire Dr",
    "city": "Raby",
    "state": "NSW",
    "postcode": "2566",
    "lat": "-34.025463",
    "long": "150.81935",
    "collection_point_type": "Reverse Vending Machine"
  },
  {
    "name": "Moorebank Sports Club",
    "return_point_name": "moorebank-sports-club",
    "address": "230 Heathcote Rd",
    "city": "Hammondville",
    "state": "NSW",
    "postcode": "2170",
    "lat": "-33.956112",
    "long": "150.95695",
    "collection_point_type": "Reverse Vending Machine"
  },
  {
    "name": "The Ponds",
    "return_point_name": "the-ponds",
    "address": "The Ponds Blvd & Riverbank Dr",
    "city": "The Ponds",
    "state": "NSW",
    "postcode": "2769",
    "lat": "-33.70607",
    "long": "150.91124",
    "collection_point_type": "Reverse Vending Machine"
  },
  {
    "name": "Woolworths Minto",
    "return_point_name": "woolworths-minto",
    "address": "10 Brookfield Road",
    "city": "Minto",
    "state": "NSW",
    "postcode": "2566",
    "lat": "-34.02803",
    "long": "150.84991",
    "collection_point_type": "Reverse Vending Machine"
  },
  {
    "name": "Penrith Golf Driving Range",
    "return_point_name": "penrith-golf-driving-range",
    "address": "2-70 Blaikie Rd",
    "city": "Jamisontown",
    "state": "NSW",
    "postcode": "2750",
    "lat": "-33.760113",
    "long": "150.6759",
    "collection_point_type": "Reverse Vending Machine"
  },
  {
    "name": "Doyalson Wyee RSL Club",
    "return_point_name": "doyalson-wyee-rsl-club",
    "address": "Pacific Hwy",
    "city": "Doyalson",
    "state": "NSW",
    "postcode": "2262",
    "lat": "-33.196026",
    "long": "151.52695",
    "collection_point_type": "Reverse Vending Machine"
  },
  {
    "name": "Sydney Indoor Climbing Gym Villawood",
    "return_point_name": "sydney-indoor-climbing-gym-villawood",
    "address": "850 Woodville Rd",
    "city": "Villawood",
    "state": "NSW",
    "postcode": "2163",
    "lat": "-33.878963",
    "long": "150.97878",
    "collection_point_type": "Reverse Vending Machine"
  },
  {
    "name": "Chapman Gardens Kingswood",
    "return_point_name": "chapman-gardens-kingswood",
    "address": "Second Ave",
    "city": "Kingswood",
    "state": "NSW",
    "postcode": "2747",
    "lat": "-33.763298",
    "long": "150.72519",
    "collection_point_type": "Reverse Vending Machine"
  },
  {
    "name": "Culburra Bowling & Recreation Club",
    "return_point_name": "culburra-bowling-recreation-club",
    "address": "Cnr Prince Edward Ave & West Cres",
    "city": "Culburra Beach",
    "state": "NSW",
    "postcode": "2540",
    "lat": "-34.932823",
    "long": "150.75557",
    "collection_point_type": "Reverse Vending Machine"
  },
  {
    "name": "Coles Killarney Vale",
    "return_point_name": "killarney-vale",
    "address": "Wyong Rd",
    "city": "Killarney Vale",
    "state": "NSW",
    "postcode": "2261",
    "lat": "-33.36585",
    "long": "151.4612",
    "collection_point_type": "Reverse Vending Machine"
  },
  {
    "name": "Lucky 7 Supermarket",
    "return_point_name": "lucky-7-supermarket-glebe",
    "address": "371 Glebe Point Road",
    "city": "Glebe",
    "state": "NSW",
    "postcode": "2037",
    "lat": "-33.8836",
    "long": "151.19211",
    "collection_point_type": "Over The Counter"
  },
  {
    "name": "Woolworths Berala",
    "return_point_name": "woolworths-berala",
    "address": "156 Woodburn Rd",
    "city": "Berala",
    "state": "NSW",
    "postcode": "2141",
    "lat": "-33.871136",
    "long": "151.03326",
    "collection_point_type": "Reverse Vending Machine"
  },
  {
    "name": "Miller Park Sports Club",
    "return_point_name": "miller-park-sports-club",
    "address": "6 Maitland St",
    "city": "East Branxton",
    "state": "NSW",
    "postcode": "2335",
    "lat": "-32.657845",
    "long": "151.361",
    "collection_point_type": "Reverse Vending Machine"
  },
  {
    "name": "Belrose Super Centre",
    "return_point_name": "belrose-super-centre",
    "address": "4\\/6 Niangala Cl",
    "city": "Belrose",
    "state": "NSW",
    "postcode": "2085",
    "lat": "-33.703716",
    "long": "151.21306",
    "collection_point_type": "Reverse Vending Machine"
  },
  {
    "name": "Mangrove Mountain Memorial Club",
    "return_point_name": "mangrove-mountain-memorial-club",
    "address": "18 Hallards Rd",
    "city": "Central Mangrove",
    "state": "NSW",
    "postcode": "2250",
    "lat": "-33.290977",
    "long": "151.23721",
    "collection_point_type": "Reverse Vending Machine"
  },
  {
    "name": "Woolworths Wadalba",
    "return_point_name": "woolworths-wadalba",
    "address": "Cnr Figtree Hwy & Pacific Hwy",
    "city": "Wadalba",
    "state": "NSW",
    "postcode": "2259",
    "lat": "-33.263805",
    "long": "151.46573",
    "collection_point_type": "Reverse Vending Machine"
  },
  {
    "name": "Port Kembla Golf Club",
    "return_point_name": "port-kembla-golf-club",
    "address": "Golf Pl",
    "city": "Primbee",
    "state": "NSW",
    "postcode": "2502",
    "lat": "-34.507492",
    "long": "150.87805",
    "collection_point_type": "Reverse Vending Machine"
  },
  {
    "name": "Berowra Tavern",
    "return_point_name": "berowra-tavern",
    "address": "1A Turner Rd",
    "city": "Berowra Heights",
    "state": "NSW",
    "postcode": "2082",
    "lat": "-33.613483",
    "long": "151.13754",
    "collection_point_type": "Reverse Vending Machine"
  },
  {
    "name": "Minto Newsagency",
    "return_point_name": "minto-newsagency",
    "address": "1 Minto Road",
    "city": "Minto",
    "state": "NSW",
    "postcode": "2566",
    "lat": "-34.027667",
    "long": "150.842840",
    "collection_point_type": "Over The Counter"
  },
  {
    "name": "Singleton Golf Club",
    "return_point_name": "singleton-golf-club",
    "address": "51 Boundary St",
    "city": "Singleton",
    "state": "NSW",
    "postcode": "2330",
    "lat": "-32.56129",
    "long": "151.18152",
    "collection_point_type": "Reverse Vending Machine"
  },
  {
    "name": "Oran Park Podium",
    "return_point_name": "oran-park-podium",
    "address": "351 Oran Park Dr",
    "city": "Oran Park",
    "state": "NSW",
    "postcode": "2570",
    "lat": "-34.0006",
    "long": "150.74135",
    "collection_point_type": "Reverse Vending Machine"
  },
  {
    "name": "Lake Jindabyne Hotel",
    "return_point_name": "lake-jindabyne-hotel",
    "address": "21 McLure Circuit",
    "city": "Jindabyne",
    "state": "NSW",
    "postcode": "2627",
    "lat": "-36.413692",
    "long": "148.6234",
    "collection_point_type": "Reverse Vending Machine"
  },
  {
    "name": "Fingal Bay Sports Club",
    "return_point_name": "fingal-bay-sports-club",
    "address": "100 Rocky Point Rd",
    "city": "Fingal Bay",
    "state": "NSW",
    "postcode": "2315",
    "lat": "-32.744003",
    "long": "152.16096",
    "collection_point_type": "Reverse Vending Machine"
  },
  {
    "name": "Tomago Bowling Club",
    "return_point_name": "tomago-bowling-club",
    "address": "657 Tomago Rd",
    "city": "Tomago",
    "state": "NSW",
    "postcode": "2322",
    "lat": "-32.828693",
    "long": "151.71039",
    "collection_point_type": "Reverse Vending Machine"
  },
  {
    "name": "Terrace Central Raymond Terrace",
    "return_point_name": "raymond-terrace",
    "address": "61A Port Stephens St",
    "city": "Raymond Terrace",
    "state": "NSW",
    "postcode": "2324",
    "lat": "-32.76235",
    "long": "151.7422",
    "collection_point_type": "Reverse Vending Machine"
  },
  {
    "name": "Clean Xpress Car Wash",
    "return_point_name": "clean-xpress-car-wash-richmond",
    "address": "20 Bosworth Street",
    "city": "Richmond",
    "state": "NSW",
    "postcode": "2753",
    "lat": "-33.596009",
    "long": "150.747821",
    "collection_point_type": "Over The Counter"
  },
  {
    "name": "The Royal Mail Hotel Braidwood",
    "return_point_name": "the-royal-mail-hotel-braidwood",
    "address": "145 Wallace Street",
    "city": "Braidwood",
    "state": "NSW",
    "postcode": "2622",
    "lat": "-35.443038",
    "long": "149.800278",
    "collection_point_type": "Over The Counter"
  },
  {
    "name": "Liverpool Golf Club",
    "return_point_name": "liverpool-golf-club-lansvale",
    "address": "Hollywood Dr",
    "city": "Lansvale",
    "state": "NSW",
    "postcode": "2166",
    "lat": "-33.903774",
    "long": "150.96854",
    "collection_point_type": "Reverse Vending Machine"
  },
  {
    "name": "Lake Haven Shopping Centre",
    "return_point_name": "lake-haven-shopping-centre",
    "address": "Lake Haven Dr & Goobarabah Ave",
    "city": "Lake Haven",
    "state": "NSW",
    "postcode": "2263",
    "lat": "-33.24263",
    "long": "151.50246",
    "collection_point_type": "Reverse Vending Machine"
  },
  {
    "name": "Kellyville Village",
    "return_point_name": "kellyville-village",
    "address": "90 Wrights Rd",
    "city": "Kellyville",
    "state": "NSW",
    "postcode": "2155",
    "lat": "-33.71301",
    "long": "150.97322",
    "collection_point_type": "Reverse Vending Machine"
  },
  {
    "name": "Wallsend Village",
    "return_point_name": "wallsend-village",
    "address": "Cnr Cowper St & Kokera St",
    "city": "Wallsend",
    "state": "NSW",
    "postcode": "2287",
    "lat": "-32.90163",
    "long": "151.6669",
    "collection_point_type": "Reverse Vending Machine"
  },
  {
    "name": "Grove Square Baulkham Hills",
    "return_point_name": "grove-square-baulkham-hills",
    "address": "375-383 Windsor Rd",
    "city": "Baulkham Hills",
    "state": "NSW",
    "postcode": "2153",
    "lat": "-33.759228",
    "long": "150.99107",
    "collection_point_type": "Reverse Vending Machine"
  },
  {
    "name": "Coles Rutherford",
    "return_point_name": "rutherford",
    "address": "Arthur St & East Mall",
    "city": "Rutherford",
    "state": "NSW",
    "postcode": "2320",
    "lat": "-32.715084",
    "long": "151.52875",
    "collection_point_type": "Reverse Vending Machine"
  },
  {
    "name": "Resource Recovery Tuncurry",
    "return_point_name": "resource-recovery-tuncurry",
    "address": "Midge Orchid Road",
    "city": "Tuncurry",
    "state": "NSW",
    "postcode": "2428",
    "lat": "-32.127612",
    "long": "152.493924",
    "collection_point_type": "Automated Depot"
  },
  {
    "name": "Stockland Merrylands",
    "return_point_name": "stockland-merrylands",
    "address": "McFarlane St",
    "city": "Merrylands",
    "state": "NSW",
    "postcode": "2160",
    "lat": "-33.83505",
    "long": "150.99002",
    "collection_point_type": "Reverse Vending Machine"
  },
  {
    "name": "Stockland Wetherill Park Shopping Centre",
    "return_point_name": "stockland-wetherill-park",
    "address": "561-583 Polding St",
    "city": "Wetherill Park",
    "state": "NSW",
    "postcode": "2164",
    "lat": "-33.86051",
    "long": "150.8989",
    "collection_point_type": "Reverse Vending Machine"
  },
  {
    "name": "Yennora Oasis Hotel",
    "return_point_name": "yennora-oasis-hotel",
    "address": "140 Fairfield St",
    "city": "Fairfield East",
    "state": "NSW",
    "postcode": "2165",
    "lat": "-33.86927",
    "long": "150.9721",
    "collection_point_type": "Reverse Vending Machine"
  },
  {
    "name": "North Kellyville Square",
    "return_point_name": "north-kellyville",
    "address": "46 Withers Rd",
    "city": "Kellyville",
    "state": "NSW",
    "postcode": "2155",
    "lat": "-33.685837",
    "long": "150.95204",
    "collection_point_type": "Reverse Vending Machine"
  },
  {
    "name": "Woolworths Jordan Springs",
    "return_point_name": "jordan-springs",
    "address": "Lakeside Pde & Jordan Springs Blvd",
    "city": "Jordan Springs",
    "state": "NSW",
    "postcode": "2747",
    "lat": "-33.727173",
    "long": "150.72456",
    "collection_point_type": "Reverse Vending Machine"
  },
  {
    "name": "Gosford Greyhounds",
    "return_point_name": "gosford-greyhounds",
    "address": "Showground Rd",
    "city": "Gosford",
    "state": "NSW",
    "postcode": "2250",
    "lat": "-33.41372",
    "long": "151.34232",
    "collection_point_type": "Reverse Vending Machine"
  },
  {
    "name": "Highlands Hub Mittagong",
    "return_point_name": "highlands-hub-mittagong",
    "address": "205 Old Hume Hwy",
    "city": "Mittagong",
    "state": "NSW",
    "postcode": "2575",
    "lat": "-34.44725",
    "long": "150.43599",
    "collection_point_type": "Reverse Vending Machine"
  },
  {
    "name": "Narraweena Newsagency",
    "return_point_name": "narraweena-newsagency",
    "address": "103 Alfred Street",
    "city": "Narraweena",
    "state": "NSW",
    "postcode": "2099",
    "lat": "-33.750394",
    "long": "151.274852",
    "collection_point_type": "Over The Counter"
  },
  {
    "name": "Bilgola Beach Surf Life Saving Club",
    "return_point_name": "bilgola-beach-surf-life-saving-club",
    "address": "Bilgola Plateau",
    "city": "Bilgola",
    "state": "NSW",
    "postcode": "2107",
    "lat": "-33.646331",
    "long": "151.326819",
    "collection_point_type": "Over The Counter"
  },
  {
    "name": "Clovelly Surf Life Saving Club ",
    "return_point_name": "clovelly-surf-life-saving-club",
    "address": "Bundock Park",
    "city": "Clovelly",
    "state": "NSW",
    "postcode": "2031",
    "lat": "-33.914855",
    "long": "151.267493",
    "collection_point_type": "Over The Counter"
  },
  {
    "name": "Coledale Surf Life Saving Club ",
    "return_point_name": "coledale-surf-life-saving-club",
    "address": "Lawrence Hargrave Drive",
    "city": "Coledale",
    "state": "NSW",
    "postcode": "2515",
    "lat": "-34.288671",
    "long": "150.948242",
    "collection_point_type": "Over The Counter"
  },
  {
    "name": "South Curl Curl Life Saving Club",
    "return_point_name": "south-curl-curl-life-saving-club",
    "address": "Carrington Parade",
    "city": "Curl Curl",
    "state": "NSW",
    "postcode": "2096",
    "lat": "-33.773143",
    "long": "151.292597",
    "collection_point_type": "Over The Counter"
  },
  {
    "name": "Carss Bush Park",
    "return_point_name": "carss-bush-park",
    "address": "36 Bunyala St",
    "city": "Carss Park",
    "state": "NSW",
    "postcode": "2221",
    "lat": "-33.98869",
    "long": "151.11371",
    "collection_point_type": "Reverse Vending Machine"
  },
  {
    "name": "Umina Surf Life Saving Club",
    "return_point_name": "umina-surf-life-saving-club",
    "address": "509 Ocean Beach Road",
    "city": "Umina Beach",
    "state": "NSW",
    "postcode": "2257",
    "lat": "-33.527098",
    "long": "151.315361",
    "collection_point_type": "Over The Counter"
  },
  {
    "name": "Whale Beach Surf Life Saving Club",
    "return_point_name": "whale-beach-surf-life-saving-club",
    "address": "227 Whale Beach Road",
    "city": "Whale Beach",
    "state": "NSW",
    "postcode": "2107",
    "lat": "-33.611536",
    "long": "151.330532",
    "collection_point_type": "Over The Counter"
  },
  {
    "name": "Scrap Ltd Holsworthy",
    "return_point_name": "scrap-ltd-holsworthy",
    "address": "209 Heathcote Rd",
    "city": "Wattle Grove",
    "state": "NSW",
    "postcode": "2173",
    "lat": "-33.953426",
    "long": "150.95271",
    "collection_point_type": "Reverse Vending Machine"
  },
  {
    "name": "St Vincent De Paul Cardiff",
    "return_point_name": "vinnies-cardiff",
    "address": "1\\/12 Belford Place",
    "city": "Cardiff",
    "state": "NSW",
    "postcode": "2285",
    "lat": "-32.940751",
    "long": "151.642046",
    "collection_point_type": "Automated Depot"
  },
  {
    "name": "Wyee Community Hall",
    "return_point_name": "wyee-community-hall",
    "address": "114 Wyee Rd",
    "city": "Wyee",
    "state": "NSW",
    "postcode": "2259",
    "lat": "-33.176445",
    "long": "151.48163",
    "collection_point_type": "Reverse Vending Machine"
  },
  {
    "name": "Westfield Warringah Mall",
    "return_point_name": "warringah-mall-brookvale",
    "address": "Condamine St & Old Pittwater Road",
    "city": "Brookvale",
    "state": "NSW",
    "postcode": "2100",
    "lat": "-33.766514",
    "long": "151.26701",
    "collection_point_type": "Reverse Vending Machine"
  },
  {
    "name": "Michael Cronin Oval Gerringong",
    "return_point_name": "return-and-earn-gerringong",
    "address": "22-42 Blackwood St",
    "city": "Gerringong",
    "state": "NSW",
    "postcode": "2534",
    "lat": "-34.74411",
    "long": "150.82368",
    "collection_point_type": "Reverse Vending Machine"
  },
  {
    "name": "Sam St Forbes",
    "return_point_name": "return-and-earn-forbes",
    "address": "46 Sam St",
    "city": "Forbes",
    "state": "NSW",
    "postcode": "2871",
    "lat": "-33.374283",
    "long": "148.0124",
    "collection_point_type": "Reverse Vending Machine"
  },
  {
    "name": "Ampol Luddenham",
    "return_point_name": "ampol-luddenham",
    "address": "19 The Northern Rd",
    "city": "Luddenham",
    "state": "NSW",
    "postcode": "2745",
    "lat": "-33.87506",
    "long": "150.68916",
    "collection_point_type": "Reverse Vending Machine"
  },
  {
    "name": "Waratah Village",
    "return_point_name": "waratah-village",
    "address": "84A Georgetown Rd",
    "city": "Waratah",
    "state": "NSW",
    "postcode": "2298",
    "lat": "-32.90644",
    "long": "151.72672",
    "collection_point_type": "Reverse Vending Machine"
  },